stop_code,stop_name,stop_lat,stop_lon
38831,בי''ס בר לב/בן יהודה,32.183985,34.917554
38832,הרצל/צומת בילו,31.869152,34.819641
38833,מרכז ראשונים/הנחשול,31.984553,34.782828
38834,משה פריד/יצחק משקה,31.888325,34.7907
38836,ת. מרכזית לוד/הורדה,31.956392,34.898098
38837,חנה אברך/וולקני,31.892166,34.796071
38838,הרצל/משה שרת,31.857565,34.824106
38839,הבנים/אלי כהן,31.862305,34.821857
38840,ויצמן/הבנים,31.865085,34.822237
38841,האירוס/הכלנית,31.865222,34.818957
38842,הכלנית/הנרקיס,31.867597,34.818392
38844,אלי כהן/לוחמי הגטאות,31.86244,34.827023
38845,שבזי/שבת אחים,31.863501,34.828702
38846,שבזי/ויצמן,31.865348,34.827102
38847,חיים ברלב/שדרות יצחק רבין,31.978011,34.764342
38848,מרכז לבריאות הנפש לב השרון,32.300345,34.912708
38849,מרכז לבריאות הנפש לב השרון,32.301347,34.912602
38851,אנדרטה לנופלים/עמנואל הלזנר,31.852746,34.836175
38852,הולצמן/המדע,31.914255,34.807944
38854,מחנה צריפין/מועדון,31.963668,34.836363
38855,הרצל/גולני,31.856115,34.825249
38856,הרותם/הדגניות,31.874963,34.81249
38859,הערבה,32.300035,34.910842
38860,מבוא הגפן/מורד התאנה,32.305234,34.948647
38861,מבוא הגפן/ההרחבה,32.304022,34.943393
38862,ההרחבה א,32.302957,34.940529
38863,ההרחבה ב,32.300264,34.939512
38864,ההרחבה/הותיקים,32.298171,34.938705
38865,רשות שדות התעופה/העליה,31.990876,34.8976
38866,כנף/ברוש,31.998767,34.879725
38867,החבורה/דב הוז,31.883019,34.818708
38869,בית הלוי ה,32.349776,34.926837
38870,הראשונים/כביש 5700,32.352953,34.899465
38872,הגאון בן איש חי/צאלון,31.897286,34.775083
38873,עוקשי/לוי אשכול,31.883941,34.807039
38875,מנוחה ונחלה/יעקב,31.896154,34.816928
38876,גורודסקי/יחיאל פלדי,31.898463,34.823461
38878,דרך הפארק/הרב נריה,32.299994,34.878765
38879,התאנה/הגפן,31.865457,34.859437
38880,התאנה/האלון,31.866772,34.864555
38881,דרך הפרחים/יסמין,31.809325,34.784347
38882,אולפנא הרב בהרן/פינס,31.803137,34.776121
38883,יצחק רבין/פנחס ספיר,31.80037,34.778239
38884,מנחם בגין/יצחק רבין,31.799224,34.782985
38885,חיים הרצוג/שדרות מנחם בגין,31.800543,34.784065
38886,בית ספר גוונים/ארז,31.802319,34.786735
38887,דרך האילנות/אלון,31.804595,34.786623
38888,דרך האילנות/מנחם בגין,31.805041,34.785098
38889,העצמאות/וייצמן,31.816751,34.782252
38890,וייצמן/מרבד הקסמים,31.816579,34.779753
38891,צאלה/אלמוג,31.801182,34.787199
38892,גן חצב/צאלה,31.802279,34.786055
38893,בית המועצה/פינס,31.815953,34.777585
38894,פיינברג/שכביץ,31.813285,34.775928
38895,בן גוריון/פוקס,31.806959,34.773504
38898,לוי אשכול/הרב דוד ישראל,31.884187,34.805494
38899,ת. רכבת רחובות/הורדה,31.909394,34.806216
38901,הרב דוד ישראל/אריה דולצין,31.882474,34.80506
38902,ברשבסקי/מנחם כהן,31.973257,34.812308
38903,קרוננברג/ארגמן,31.878667,34.81138
38904,יעקב פריימן/בנימין שמוטקין,31.975479,34.813355
38905,אנילביץ'/שלום אש,31.982177,34.789445
38906,נחמיה/בית העלמין,31.948552,34.822422
38907,יהודה הלוי/גבעתי,31.967681,34.815998
38908,ההגנה/חי''ש,31.893823,34.824617
38909,קרית עקרון/כביש 411,31.854169,34.824714
38910,צומת חולדה/כביש 411,31.811907,34.900793
38911,גרינשפן/יגאל אלון,31.956842,34.814839
38912,השומר/האבות,31.959821,34.814747
38913,משה שרת/יעקב קנר,31.993406,34.754646
38914,מרכז ראשונים/הדייגים,31.98497,34.78262
38916,יוסף בורג/משואות יצחק,31.968049,34.818099
38917,יוסף בורג/כתריאל רפפורט,31.968936,34.820043
38918,מקס נורדאו/בנימין,31.894878,34.815148
38919,וייצמן/החרש,31.923041,34.798033
38920,שדרות משה דיין/יוסף לישנסקי,31.98568,34.764014
38921,השר חיים שפירא/יוסף ספיר,31.992583,34.751999
38922,השר חיים שפירא/הרב שלום ג'רופי,31.990757,34.755683
39001,שדרות יעקב/נחמיה,31.950002,34.819131
39002,שדרות יעקב/יוסף הנשיא,31.951813,34.820214
39004,לייב יוספזון/יעקב ברמן,31.905052,34.818909
39005,הרב יעקב ברמן/הרב יהודה צבי מלצר,31.901879,34.819443
39006,ברמן/מלצר,31.90281,34.818922
39007,הנשיא הראשון/מכון ויצמן,31.904618,34.815531
39008,הנשיא הראשון/קיפניס,31.904755,34.816661
39009,שמחה הולצברג/אברהם ליכטנשטיין,31.932562,34.831995
39010,שמחה הולצברג/אברהם ליכטנשטיין,31.932649,34.831881
39012,הירדן/הערבה,31.937387,34.838609
39013,הירדן/חרוד,31.936925,34.838341
39014,האלונים/הדקל,31.939037,34.831964
39015,האלונים/שמואל שפירא,31.94226,34.831681
39017,האלונים א/הדקל,31.939656,34.832104
39018,פארק תעשיות שילת,31.914324,35.023589
39019,פארק תעשיות שילת,31.914816,35.023028
39024,עיריית מודיעין מכבים רעות,31.908938,35.007591
39025,חטיבת אלכסנדרוני/חטיבת גולני,31.909273,35.002003
39028,חיים ברלב/מרדכי מקלף,31.908038,35.000419
39029,חיים ברלב/מרדכי מקלף,31.90739,35.001192
39031,חטיבת גולני/מרדכי מקלף,31.909485,35.001896
39032,כליל החורש/מגדל דוד,31.902124,35.01496
39033,כליל החורש/מגדל דוד,31.90238,35.014845
39035,אלמוג סנטר/אפרים קישון,31.941611,34.843114
39039,גן חק''ל/רבאט,31.931068,34.884936
39040,גן חק''ל/רבאט,31.931204,34.884956
39041,קניון צ. רמלה לוד/דוכיפת,31.933379,34.887207
39043,היצירה/התקווה,31.929199,34.879993
39044,עמל/היצירה,31.932402,34.881442
39045,נווה תרצה,31.934488,34.879631
39051,ישראל פרנקל/דוב הוז,31.935488,34.863972
39052,יוספטל/הדס,31.936109,34.857638
39054,עמיחי/מאיר בינט,31.936308,34.856334
39055,השריון/הצנחנים,31.933337,34.856046
39056,אהרון בוגנים/משה שרת,31.933413,34.853906
39057,גרשון ש''ץ/שמחה הולצברג,31.932532,34.853223
39058,הולצברג/שץ,31.93166,34.853149
39059,אשכול/הרב שפירא,31.929827,34.857194
39060,יהודה שטיין/קרן היסוד,31.926545,34.855866
39066,שמשון הגיבור/המסגד,31.926441,34.866014
39068,ביאליק/חניתה,31.924484,34.870366
39069,קופת חולים כללית/ביאליק,31.921629,34.868801
39070,א.ס לוי/סעדיה מרדכי,31.9209,34.861221
39071,רזיאל/זכריה,31.923666,34.862813
39072,חרוד א,31.912572,34.850134
39073,חרוד/הירדן,31.915977,34.848217
39074,הירדן/דן,31.915321,34.852309
39075,הירדן/דן,31.915489,34.852139
39076,עוזי חיטמן/שושנה דמארי,31.917022,34.868261
39077,עוזי חיטמן/דליה רביקוביץ,31.918782,34.870995
39078,עוזי חיטמן/חנוך לוין,31.918696,34.873447
39079,אהוד מנור/חיטמן,31.916945,34.874461
39080,שושנה דמארי/אהוד מנור,31.916141,34.872134
39081,שושנה דמארי/אהוד מנור,31.916235,34.873652
39082,אהוד מנור/עוזי חיטמן,31.917837,34.874646
39083,בי''ס האמנים/עוזי חיטמן,31.917891,34.868634
39086,דרך האורנים/ברוש,31.92072,35.016294
39087,שקד/האורנים,31.922468,35.01438
39088,דרך החרוב/גפן,31.919711,35.020017
39089,דרך החרוב/גפן,31.919795,35.019979
39090,החרוב א,31.919163,35.02323
39091,החרוב א,31.919207,35.0234
39092,כפר רות,31.910108,35.033964
39100,החוף הירוק,32.270646,34.837567
39101,חוף פולג/רמת פולג,32.272632,34.838726
39102,חוף פולג/רמת פולג,32.27242,34.838508
39103,אהוד מנור/שוש עטרי,32.274543,34.8413
39104,אהוד מנור/דודו דותן,32.27487,34.842868
39105,זלמן שז''ר/מרדכי גור,32.27572,34.845201
39106,זלמן שז''ר/בני ברמן,32.276562,34.846404
39107,קניון עיר ימים/זלמן שז''ר,32.276837,34.847509
39108,אודם\שהם,32.256581,34.864843
39109,שדרות גולדה מאיר/משעול קיפניס,32.27659,34.85165
39110,צומת אביר/כביש 553,32.272698,34.856933
39111,יהלום/ספיר,32.261931,34.863096
39112,יהלום/שני,32.264446,34.862627
39113,מזכירות,32.260481,34.864793
39114,האורזים/האר''י,32.312257,34.869559
39115,איקאה/שדרות גיבורי ישראל,32.274579,34.858842
39117,שד. עובד בן עמי/קהילת צפת,32.306182,34.84364
39118,אירוס הארגמן/חבצלת החוף,32.285717,34.844815
39119,קניון עיר ימים/זלמן שז''ר,32.277813,34.848946
39120,חבצלת החוף/אירוס הארגמן,32.284726,34.846795
39121,שניאור/בן גוריון,32.283634,34.849249
39122,זלמן שניאור/אריה לייב יפה,32.282812,34.847562
39123,ש''י עגנון/קרן היסוד,32.282979,34.84922
39125,גבעת האירוסים/אירוס הארגמן,32.287046,34.846117
39126,חבצלת החוף/אירוס הארגמן,32.286259,34.848222
39127,הבריגדה היהודית/החפץ חיים,32.296835,34.844671
39128,שמחה ארליך/שדרות בן גוריון,32.300631,34.844687
39129,דוד רזניק/החפץ חיים,32.295287,34.845476
39130,לוי אשכול/יעקב דורי,32.296581,34.846977
39131,אריה מוצקין/ד''ר סטופ,32.296783,34.848266
39132,אריה מוצקין/ד''ר סטופ,32.29704,34.848792
39133,הבריגדה היהודית/חיים ברלב,32.298042,34.845308
39134,בלומנפלד/יעקב דורי,32.298675,34.846832
39135,שמחה ארליך/שדרות בן גוריון,32.299915,34.846765
39136,לוי אשכול/יעקב דורי,32.298453,34.848019
39138,שמחה ארליך/לוי אשכול,32.299316,34.849289
39139,בן עמי/שמחה ארליך,32.302867,34.843196
39141,בית ספר אלדד/שדרות גולדה מאיר,32.276979,34.854475
39142,בן עמי/קהילת צפת,32.3052,34.842963
39144,'נאות גולדה א,32.277828,34.851875
39145,'נאות גולדה ב,32.278509,34.85214
39146,נאות גולדה\חזני,32.278717,34.852186
39147,פנקס/57,32.323511,34.874761
39148,ש''י עגנון/יאנוש קורצ'אק,32.280743,34.851721
39149,שדרות פנחס לבון/פנחס רוטנברג,32.280794,34.852967
39150,ש''י עגנון/יצחק אפשטיין,32.281577,34.850372
39152,זלמן שניאור/ש''י עגנון,32.283894,34.849358
39153,שדרות פנחס לבון/תיאודור וייסלברגר,32.282133,34.853363
39154,יצחק קצנלסון/ד''ר וייסלברגר,32.284632,34.852016
39155,רוטנברג\נורדאו,32.279793,34.854338
39156,פנחס לבון/ישראל בר יהודה,32.283161,34.854158
39157,השר ישראל בר יהודה/נורדאו,32.281378,34.856436
39158,מנדלי מוכר ספרים/נורדאו,32.283807,34.85734
39160,יצחק קצנלסון/שדרות פנחס לבון,32.285573,34.85359
39161,שדרות פנחס לבון/יצחק קצנלסון,32.285451,34.854552
39162,שדרות פנחס לבון/שלום עליכם,32.28675,34.854833
39163,לבון/שלום עליכם,32.286557,34.855052
39164,הרב אבו חצירא/הרב רפאל אנקווה,32.285705,34.856197
39166,מרכז ביג/שדרות גיבורי ישראל,32.276114,34.859673
39167,שדרות גיבורי ישראל/הבונים,32.279935,34.860652
39168,שד. גיבורי ישראל/הבונים,32.280886,34.861197
39170,שד. גיבורי ישראל/התרופה,32.282477,34.861469
39171,שדרות גיבורי ישראל/האומנות,32.277345,34.860081
39172,מסוף יד חרוצים,32.278292,34.863479
39173,ת.רכבת ספיר,32.28034,34.864471
39174,שדרות גיבורי ישראל/התרופה,32.283436,34.862011
39175,התרופה/אריה רגב,32.282866,34.862884
39176,פארק שיאים,32.2847,34.865661
39177,בית חרושת טבע,32.285635,34.862489
39178,בית חרושת אביק,32.285429,34.862662
39179,הדרים/הראשונים,32.264276,34.931813
39180,שד. גיבורי ישראל/האומנות,32.277657,34.859914
39181,השלום\הגביש,32.286298,34.863673
39182,המחשב/הצורן,32.287621,34.86501
39183,עירייה,32.28872,34.86565
39184,יצחק גרינבוים/אפרים אלנקווה,32.294995,34.849667
39185,יצחק גרינבוים/ד''ר שמורק,32.294705,34.851791
39186,גרינבוים/בן צבי,32.294485,34.851985
39187,בן צבי/גרנבוים,32.293898,34.852491
39188,משטרה/בן צבי,32.294922,34.852932
39189,הנרייטה סולד/סטופ,32.29569,34.851774
39190,הנביאים/שד. בן צבי,32.29686,34.853099
39191,הנביאים/נצח ישראל,32.297185,34.85401
39193,שד. בן צבי/שמחה ארליך,32.297873,34.85357
39194,יחזקאל\הנביאים,32.297381,34.855518
39195,בן צבי/פלוגת מכבי,32.300044,34.853804
39196,בן צבי/נחום,32.301071,34.85428
39197,נחום/ישעיהו,32.300595,34.854651
39198,נחום/ישעיהו,32.30046,34.854938
39199,בית הכנסת הבוכרים/בן בוזי,32.297593,34.855673
39200,יחזקאל בן בוזי/נחום,32.299615,34.856236
39201,'יחזקאל/נחום א,32.299807,34.856413
39203,בן צבי/נחום,32.302485,34.854339
39204,בית ספר טשרניחובסקי/בן צבי,32.307958,34.854598
39205,בית ספר טשרניחובסקי/בן צבי,32.309604,34.854846
39206,בי''ס שפירא,32.29413,34.858763
39207,מרכז גריאטרי דורות/הנביאים,32.296945,34.858045
39208,בן עמי/קניג,32.310048,34.84455
39209,שדרות בן עמי/צהלה,32.313311,34.845828
39210,בן עמי\צהלה,32.314372,34.845906
39211,שד. עובד בן עמי/ברוך רם,32.316395,34.846121
39212,ז'בוטינסקי/סמילנסקי,32.321443,34.848668
39213,שד. בן אב''י/הרעות,32.319471,34.848923
39214,ז'בוטינסקי/קרליבך,32.324404,34.849462
39215,בן צבי/הגר''א,32.311076,34.854911
39216,שד. בן צבי/היהלומן אברהם,32.310926,34.855105
39217,בית ספר טשרניחובסקי/הגר''א,32.310378,34.856482
39218,עובדיה בן שלום/שלום שבזי,32.313369,34.855772
39220,שד. בנימין/שלום שבזי,32.315234,34.854128
39221,שד. בנימין/הרב טביב,32.315887,34.854722
39222,שד. בן אב''י/שד. בנימין,32.317684,34.854885
39223,עובדיה בן שלום/רמב''ם,32.315389,34.856864
39224,עובדיה בן שלום/רמב''ם,32.315897,34.857335
39225,אליעזר בן יהודה/אברהם אבו שדיד,32.319667,34.851035
39226,סמילנסקי/ירמיהו הלפרין,32.322012,34.8497
39228,סמילנסקי/שדרות ירושלים,32.324634,34.852055
39229,דיזנגוף/ירושלים,32.326185,34.851932
39230,שדרות ירושלים/סמילנסקי,32.324914,34.852771
39231,שדרות בן אב''י/שדרות בנימין,32.318227,34.85454
39232,שד. בן אב''י/שד. בנימין,32.318437,34.855357
39233,שדרות בנימין/טשרניחובסקי,32.320496,34.855573
39234,שד. בנימין/תחכמוני,32.321473,34.856082
39235,שד.ירושלים/שד. בנימין,32.323668,34.855526
39236,שד. בנימין/שד. ירושלים,32.323959,34.856728
39237,שד. בנימין/שד. ירושלים,32.324201,34.856548
39238,האר''י/הרב חרל''פ,32.312226,34.860947
39239,האר''י/דן שומרון,32.312051,34.860675
39240,פתח תקווה/אצ''ל,32.317886,34.857972
39242,פתח תקווה/בן אבי,32.317978,34.857753
39243,פתח תקווה/אפרים אהרונסון,32.322091,34.859639
39244,פתח תקווה/טיומקין,32.321309,34.859504
39245,פתח תקווה/החלוצים,32.325907,34.860642
39246,הרצל/עולי הגרדום,32.325412,34.864958
39247,הרצל/עולי הגרדום,32.325694,34.864841
39248,אוסישקין/שד. ירושלים,32.326482,34.851215
39249,אוסישקין/ראשון לציון,32.329177,34.851367
39250,דיזנגוף/דוד רמז,32.32771,34.852699
39251,דוד המלך/סטודיו,32.331333,34.851227
39252,דיזנגוף/הרצל,32.329606,34.854308
39253,ששת הימים\ויצמן,32.331575,34.859631
39254,כיכר פרלמן,32.332163,34.856506
39255,דוד המלך/שד. ניצה,32.334329,34.852307
39256,בי''ס יהודה הנשיא,32.337778,34.854235
39258,אנדריוס/בורוכוב,32.335749,34.856207
39259,בורוכוב/יהודה הנשיא,32.33777,34.856468
39260,בורוכוב/יהודה הנשיא,32.337985,34.856332
39261,ד''ר יהושע טהון/ליאון רייך,32.339815,34.856594
39262,הרב הרצוג/שלמה המלך,32.341132,34.854239
39263,יהושע טהון/איכילוב,32.339485,34.856422
39264,יהושע טהון/הרצוג,32.341076,34.856578
39265,ד''ר יהושע טהון/הרב הרצוג,32.341278,34.856356
39267,ת. מרכזית נתניה,32.327371,34.858238
39269,שדרות חיים וייצמן/שער העמק,32.328953,34.858496
39270,שוק עירוני,32.330186,34.858976
39271,ויצמן/ששת הימים,32.331154,34.858841
39272,מלחמת ששת הימים/ישראל זנגוויל,32.331518,34.861524
39273,הרצל/מינץ,32.326819,34.862473
39274,הרצל/בנימין מינץ,32.326176,34.863338
39275,דרך רזיאל/היהלום,32.329126,34.861776
39276,דרך רזיאל/מלחמת ששת הימים,32.330756,34.862389
39277,דרך רזיאל/מלחמת ששת הימים,32.331629,34.86348
39278,הרב יצחק ניסנבוים/משה גליקסון,32.33108,34.865072
39279,דרך רזיאל/הרב ריינס,32.33235,34.864247
39280,דרך רזיאל/הרב ריינס,32.333132,34.865237
39281,י.ח. ברנר/שד. חיים וייצמן,32.334658,34.859208
39282,ויצמן\שפירא משה,32.334382,34.859411
39283,שדרות וייצמן/יהודה הנשיא,32.337669,34.859541
39284,וייצמן/שרת,32.337702,34.859784
39285,חיים וייצמן/משה איכילוב,32.339039,34.859959
39286,וייצמן/איכילוב,32.339836,34.859845
39287,הרב הרצוג/שדרות חיים וייצמן,32.341324,34.86009
39288,שד.וייצמן/סוקולוב,32.341515,34.86033
39289,בית הבאר/נחום סוקולוב,32.342087,34.860981
39291,הרב ריינס/עמק חפר,32.336476,34.865621
39292,גולומב/טרומפלדור,32.341185,34.863344
39293,שרת/אליהו גולומב,32.339896,34.86404
39294,נחום סוקולוב/פייר ז'ילבר,32.341611,34.865289
39295,נחום סוקולוב/פייר ז'ילבר,32.34141,34.86566
39296,בית חולים לניאדו,32.34622,34.857721
39297,הגדוד העברי/דברי חיים,32.34798,34.857421
39298,אח''י דקר/דברי חיים,32.34778,34.857511
39299,בית חולים לניאדו,32.34633,34.857925
39300,הרב מיימון/מוריה,32.345629,34.860975
39301,הרב מיימון/מוריה,32.345805,34.860892
39302,הגפן\הגדוד העבר,32.348002,34.861079
39303,הגפן\החרוב,32.34802,34.861189
39304,הגפן/שד. עין התכלת,32.349772,34.861387
39305,הגפן/שד. עין התכלת,32.349716,34.861483
39306,קמיל הויסמנס/רבי עקיבא,32.342521,34.862124
39307,קמיל הויסמנס/בלפור,32.344115,34.86237
39310,הגפן/השקד,32.351844,34.862521
39311,הגפן/השקד,32.3519,34.862727
39314,צומת תל יצחק,32.255564,34.872795
39316,'כפר נטר א,32.268611,34.866013
39317,מרפאה,32.269977,34.868766
39318,ההדרים/החרוב,32.273119,34.873461
39319,ההדרים/סמטת החרוב,32.276544,34.874795
39320,ההדרים/עממי,32.258078,34.888347
39321,ההדרים/עממי,32.258273,34.888269
39323,השומרון/ותיקים,32.26319,34.88864
39324,השומרון/ותיקים,32.263559,34.887886
39325,ההדרים/הלוחמים,32.260699,34.88919
39326,ההדרים/הלוחמים,32.260831,34.889346
39327,המתמיד/הנוטע,32.2672,34.887143
39328,הנוטע/רקפות,32.267152,34.887052
39329,המייסדים/צבר,32.269811,34.885011
39330,מועצה מקומית,32.269779,34.888827
39333,העצמאות/נרקיסים,32.274281,34.88719
39334,כביש 4/השומרון,32.261712,34.892477
39337,כביש 4/תל צור,32.275284,34.895065
39339,כפר נטר הצעירה,32.281311,34.873008
39340,העצמאות/רימון,32.281889,34.891557
39341,כפר נטר הצעירה,32.28174,34.872602
39342,ההדרים/השלום,32.278974,34.875265
39343,האלון/ההדרים,32.281095,34.875047
39345,האלון/ההדרים,32.28104,34.876025
39346,פארק הבנים/הבנים,32.281801,34.880624
39347,גן הבנים/הבנים,32.282129,34.880927
39348,שדרות לנטוס/יוסף,32.29696,34.869407
39349,טום לנטוס/ליבר זאב,32.300914,34.86956
39350,דרך דגניה/בני וו.רייך,32.295836,34.873232
39351,דרך דגניה/ליבר זאב,32.299918,34.873394
39352,טום לנטוס/ד''ר יהודה פרח,32.303634,34.86967
39355,שפיגלמן/הגולן,32.307611,34.872856
39356,בית עלמין,32.298762,34.881391
39357,דגניה\קלויזנר,32.306429,34.874354
39358,דרך דגניה/פרופסור יוסף קלאוזנר,32.307437,34.874793
39360,מרכז דוד/דרך דגניה,32.308448,34.874746
39361,חורשת הסרג'נטים/האוניברסיטה,32.306781,34.877867
39362,הרטום/רות המואביה,32.308907,34.876499
39364,מכללת נתניה/החינוך העברי,32.306937,34.879312
39365,דרך הפארק/האוניברסיטה,32.306208,34.880625
39366,ההשכלה/האוניברסיטה,32.307372,34.880983
39367,ההשכלה/האוניברסיטה,32.30755,34.880771
39368,ההשכלה/הרב יהודה אונטרמן,32.30888,34.881223
39369,ההשכלה/הרב יהודה אונטרמן,32.309305,34.881158
39370,הבנים/המחתרת,32.280259,34.884816
39371,הבנים/מרבד הקסמים,32.280217,34.884985
39372,הבנים/סמטת הורדים,32.278278,34.888529
39373,הבנים/סמטת הורדים,32.278373,34.888535
39374,צומת הדסים,32.283842,34.89663
39375,צומת הדסים,32.284115,34.897933
39376,הברבור/הזמיר,32.30399,34.882232
39377,הזמיר/השחף,32.306077,34.882851
39378,הזמיר/הנשר,32.306827,34.882423
39379,דרך הלורד\אבני,32.248347,34.910543
39380,הורדים/יונק הדבש,32.267569,34.913161
39381,הארז/השיזף,32.266731,34.913567
39382,גורדון/כצנלסון,32.272356,34.9105
39383,יוספטל / מימון,32.27471,34.907677
39385,גורדון/רוזנבך,32.273226,34.909809
39386,גורדון/ברנר,32.273996,34.909588
39387,יאנוש קורצ'אק/גורדון,32.275772,34.909654
39388,גורדון/יאנוש קורצ'אק,32.275657,34.909792
39389,ז'בוטינסקי/ההסתדרות,32.268747,34.91245
39390,אח''י דקר/ההסתדרות,32.269922,34.912325
39391,האלון/ההסתדרות,32.270195,34.912545
39392,שבזי/שד. יצחק בן צבי,32.272628,34.911703
39393,אח''י דקר/העורב,32.269257,34.913385
39394,מ''ג/ההסתדרות,32.271478,34.913327
39395,מ''ג/אלי כהן,32.271388,34.914331
39396,שבזי/סעדיה אבני,32.273004,34.913138
39397,שבזי/בר יהודה,32.273334,34.913549
39398,הדקל/הכלנית,32.248511,34.915812
39399,הדקל/הרקפת,32.249961,34.918202
39400,הדקל/הנרקיס,32.252882,34.918311
39401,הדקל/השקד,32.256492,34.920256
39402,הארז/הציפורים,32.266482,34.915282
39403,הארז/השלדג,32.266374,34.915906
39404,הארז/השיקמים,32.266808,34.917493
39405,הארז/השיקמים,32.266815,34.917657
39406,הדקל/התמר,32.260507,34.922334
39407,כביש 562/האנפה,32.266652,34.919281
39408,היובל/התפוז,32.271438,34.916988
39409,מסגריה/מ''ג,32.271495,34.917259
39410,שבזי/אלי כהן,32.27339,34.915612
39411,מ''ג/שבזי,32.273466,34.916759
39412,אזור תעשיה קדימה,32.271645,34.922244
39413,562/שדרות הדקלים,32.272848,34.922903
39414,צומת עין ורד,32.261017,34.929346
39415,הרצל/האירוסים,32.283332,34.905008
39416,הרצל/תדהר,32.282917,34.906375
39417,הרצל/מורדי הגטאות,32.282382,34.908295
39418,הרצל/מורדי הגטאות,32.28265,34.907671
39419,שד. יצחק בן צבי/הנרייטה סולד,32.277405,34.911268
39420,שד. יצחק בן צבי/רימון,32.278079,34.91113
39421,בן צבי\אחד העם,32.280614,34.911222
39422,מועצה,32.280963,34.911613
39423,כיכר אורט,32.312364,34.871873
39424,שפיגלמן/הרטום,32.309694,34.873201
39425,בי''ס אורט,32.31649,34.873759
39426,ת. רכבת נתניה,32.320335,34.869027
39427,האורזים/העמל,32.319428,34.871759
39428,קניון הדרים,32.322866,34.872025
39429,דרך דגניה/הרב יהודה אונטרמן,32.31054,34.875589
39430,מרכז מסחרי/האר''י,32.312108,34.870772
39431,אסתר המלכה/הרב יהודה אונטרמן,32.310451,34.877692
39432,דוד פנקס/הרכב,32.31536,34.87447
39433,הנגר/הפלדה,32.3166,34.877512
39434,בית חרושת טריוול,32.315536,34.877502
39435,ארלוזורוב/השומר,32.312117,34.87944
39436,הרב צירלסון/השומר,32.310403,34.882045
39437,ההשכלה/השומר,32.310633,34.881197
39438,ארלוזורוב/הלפרין,32.314904,34.881343
39439,דוד פנקס/צבי שכטרמן,32.319623,34.874105
39440,דוד פנקס/צבי שכטרמן,32.320168,34.874932
39443,פנקס/הקדר,32.323412,34.874522
39444,צבי שכטרמן/הפלדה,32.320071,34.877451
39445,צבי שכטרמן/הפלדה,32.319855,34.878939
39446,צבי שכטרמן/דרך דגניה,32.319669,34.881371
39447,צבי שכטרמן/דרך דגניה,32.319774,34.881173
39448,יוספטל/גליקסון,32.329332,34.867008
39449,משה גליקסון/שמעון פרוג,32.330186,34.868109
39450,דוד פרישמן/משה גליקסון,32.331295,34.86846
39452,אלקלעי/ברק בן אבינועם,32.332927,34.870773
39453,עמק חפר/אליהו גולומב,32.337802,34.866399
39454,דב הוז\ריינס,32.336824,34.866861
39455,נחום סוקולוב/עמק חפר,32.340773,34.867708
39456,עמק חפר מזאה,32.342533,34.868426
39457,פרופסור אלברט איינשטיין/צ.פ. חיות,32.340812,34.868964
39458,פרופסור אלברט איינשטיין/שלמה דרור,32.341039,34.868764
39459,דב הוז\שפינוזה,32.336095,34.870033
39460,אלקלעי/יפתח הגלעדי,32.335269,34.871719
39461,פרופסור אלברט איינשטיין/פרופסור שור,32.340353,34.870635
39462,פרופסור אלברט איינשטיין/פרופסור שור,32.340667,34.870172
39463,בית ספר ש''י עגנון/שמעון בר יוחאי,32.341127,34.871867
39464,יוסף שפרינצק/מיכאל הלפרין,32.313726,34.883756
39465,הרב ז. גולד/הרב צירלסון,32.309742,34.884434
39466,הרב גד מכלוף/שמואל לנדאו,32.311642,34.884744
39467,יוסף שפרינצק/הרב הגר,32.313727,34.883995
39468,דרך דגניה,32.317779,34.882235
39469,יוסף שפרינצק/יוסף ויתקין,32.315409,34.886138
39470,יוסף שפרינצק/עובדיה אברהם הכהן,32.315803,34.886283
39471,שפרינצק/שרה מלכין,32.31742,34.887003
39472,יוסף שפרינצק/הרב מנחם זמבה,32.317675,34.88721
39473,אליעזר קפלן/יוסף אהרונוביץ',32.320154,34.884427
39475,אליעזר קפלן/יוסף שפרינצק,32.319832,34.887322
39476,יוסף שפרינצק/משה מונטיפיורי,32.319394,34.887527
39477,עמק חפר\מזאה,32.342214,34.868404
39479,עמק חפר/מסריק,32.344976,34.869845
39481,הגדוד העברי/ההגנה,32.349048,34.870049
39482,מרפאה,32.350595,34.871017
39484,הגדוד העברי/השומר,32.352255,34.873187
39485,הגדוד העברי/השומר,32.352276,34.873078
39486,הגדוד העברי/הבנים,32.355595,34.872864
39487,קופ''ח כללית,32.265625,34.93293
39488,הראשונים/הברכות,32.267751,34.935106
39489,ברבור/עגור,32.272156,34.935163
39490,מזכירות,32.275122,34.935257
39492,כביש 562/האילנות,32.287707,34.938261
39493,ההדרים צורן/השיקמה צורן,32.288623,34.938923
39494,ההדרים צורן/האילן צורן,32.289149,34.940214
39495,דרך לב השרון/הגפן,32.287617,34.943406
39496,האילנות/הדולב,32.286661,34.945478
39497,ההדרים צורן/הגפן צורן,32.289157,34.944333
39498,דרך לב השרון/הזית,32.287382,34.948901
39499,ההדרים צורן/ההדס צורן,32.289142,34.947722
39500,ההדרים/החרוב,32.289036,34.950515
39501,חבצלת החוף/אירוס הארגמן,32.284172,34.845649
39503,מלון כרמל/שדרות בן גוריון,32.316178,34.846288
39504,ד''ר סטופ/הנרייטה סולד,32.296697,34.850917
39505,מוצקין/כהן מגורי,32.298015,34.849249
39506,שמחה ארליך/אריה מוצקין,32.299539,34.849183
39507,שדרות עובד בן עמי/פייר קניג,32.311167,34.845866
39508,פתח תקווה/לילינבלום,32.324783,34.860237
39509,הצורן/הארי טרומן,32.286776,34.865363
39511,האורג/הפלדה,32.31863,34.877849
39512,בית ספר אורט/פנקס,32.316808,34.87402
39513,דוד פנקס/צבי שכטרמן,32.320682,34.874438
39514,הגביש/המחקר,32.289026,34.863707
39515,פנחס לבון/גולדה מאיר,32.278777,34.851223
39516,איקאה/שדרות גיבורי ישראל,32.273967,34.858725
39519,האילנות/הדולב,32.286174,34.945903
39520,האילנות/הזית,32.286178,34.948387
39521,דרך לב השרון/האילן,32.287606,34.939667
39522,ת. מרכזית נתניה/הורדה,32.327128,34.85839
39523,ת. מרכזית נתניה,32.3266,34.858649
39524,צומת נווה איתמר,32.324396,34.874173
39525,האוניברסיטה/דרך דגניה,32.306969,34.875881
39526,דרך הפארק/הזמיר,32.305224,34.88071
39527,דרך דגניה/ליבר זאב,32.300799,34.873797
39528,דרך דגניה/הרב שלום איפרגן,32.298309,34.873578
39529,השיקמה/השקד,32.351798,34.865675
39531,מסעף שער אברהם,31.761736,34.791111
39533,הנשר/הזמיר,32.306709,34.881398
39534,האורזים/צבי שכטרמן,32.321122,34.871836
39535,בית ספר ריגלר/חטיבת אלכסנדרוני,32.301286,34.850066
39536,מחלף נשרים,31.901922,34.888167
39538,הרב עובדיה יוסף/דרך דגניה,32.311213,34.87559
39539,האורזים/אורט,32.316546,34.871605
39540,בני וו. רייך/אדר,32.295088,34.871835
39541,בני וו. רייך/אדר,32.294889,34.87162
39544,מכללת הרמלין/המחקר,32.291133,34.86485
39545,בי''ס שי עגנון/הרב יוסף אלישיב,32.341739,34.872431
39547,אלונים/דרך דגניה,32.303112,34.875189
39553,שמואל הנציב/י.ח.ברנר,32.334494,34.856713
39554,ת. רכבת בית יהושע,32.262901,34.860144
39557,מודיעים/חיטה,31.989298,34.94308
39558,כלנית/יסמין,31.996307,34.828531
39559,טום לנטוס/תשרי,32.296268,34.869149
39560,שדרות לנטוס/יוסף,32.298703,34.869244
39561,גשר השלום/הגביש,32.28663,34.862025
39566,הרימון/התמר,32.35244,34.864109
39568,רזיאל/א.ס. לוי,31.921328,34.861894
39569,אנילביץ/שלמה המלך,31.980533,34.789306
39570,אבשלום גיסין/ איתי יהודה,32.097971,34.88065
39571,משה סנה/גיסין,32.098887,34.879087
39574,אלונים/הנופר,32.302928,34.876757
39581,גוש עציון/הציונות,32.07944,34.845776
39582,בית תרבות,32.36978,34.9931
39583,'גן יאשיה ד,32.349977,34.995678
39584,צומת חרב לאת,32.401246,34.914847
39585,הראשונים/אודים,32.39757,34.912597
39586,הזיתים/הרימון,32.081942,34.8521
39588,שדרות פנחס לבון/ש''י עגנון,32.280117,34.852301
39589,הרצוג/עובדיה מברטנורא,32.342204,34.859563
39590,רבן יוחנן בן זכאי/שמעיה,32.050985,34.948886
39593,'חרב לאת ג,32.400645,34.920183
39594,'מעפיל א,32.37774,34.984523
39596,צומת אליכין,32.397328,34.925899
39597,הגפן/הרש''ש,32.405724,34.925178
39598,הרש''ש/כנפי הנשרים,32.405282,34.926826
39599,חבצלת השרון/שקד,32.409222,34.930139
39600,הגפן/התמר,32.406581,34.922059
39601,חבצלת השרון/היסמין,32.410325,34.924035
39602,חבצלת השרון/כנפי הנשרים,32.409651,34.928095
39603,הרש''ש/הסביון,32.408402,34.931491
39604,הרש''ש/מרבד הקסמים,32.405734,34.929782
39606,מחלף שפיים,32.215697,34.82803
39607,מסעף שפיים,32.217018,34.828416
39608,שפיים,32.219873,34.829083
39609,שפיים,32.222273,34.82981
39611,דרך הארז/דרך ההדס,32.319569,34.96444
39612,דרך ההדס/סמטת הדקל,32.326894,34.96212
39614,הראשונים/החרוב,32.332589,34.951736
39615,הראשונים/סמטת הדקל,32.328484,34.958212
39616,דרך הארץ/סמטת הברוש,32.323142,34.964238
39617,החרוב/הראשונים,32.329279,34.947523
39618,שדרות הזיתים/הגפן,32.289251,34.998483
39621,מרכז חינוכי,32.388796,34.941918
39622,זמיר/עגור,32.274848,34.93502
39625,צומת המעבר לדרום,32.279162,35.005424
39626,הזיתים/הרימון,32.08216,34.852286
39627,שד. בן גוריון/זלמן שניאור,32.281706,34.846606
39628,ת.רק''ל/תחנה מרכזית למערב,32.094807,34.886466
39629,ביה''ח תל השומר/מנהלה,32.047823,34.845098
39631,הארז/החוגלה,32.268648,34.918849
39632,יהלום/שני,32.264772,34.862593
39634,ת.התרעננות/דור אלון נען כביש 6,31.881588,34.87851
39635,הרב הרצוג/שד. ניצה,32.342351,34.853866
39637,עמק חפר/טרומפלדור,32.340502,34.867379
39641,'כפר נטר א,32.268613,34.865811
39645,פנחס לבון/גולדה מאיר,32.278938,34.851073
39647,העצמאות/הפטל,32.278646,34.889571
39650,בית ספר רמב''ם/הרב שלום שבזי,32.090333,34.948825
39651,הורדים/הניצן,32.27195,34.919017
39653,הארז/הנוריות,32.26881,34.918887
39654,המייסדים/רמת בן גוריון,32.270232,34.884112
39655,הורדים/השקד,32.270837,34.918726
39656,שד. הדקלים/הורדים,32.273278,34.920039
39657,קמיל הויסמנס/בלפור,32.344502,34.862316
39658,עובדיה בן שלום/האר''י,32.31337,34.855963
39659,פתח תקווה/ד''ר מרדכי שריבר,32.323036,34.860023
39660,פארק סיבל/יציאה מכביש 5,32.10624,34.961352
39661,מחלף ראש העין מזרח,32.107139,34.961855
39662,מחלף ראש העין מזרח,32.107606,34.962074
39669,קיבוץ גלויות/נחל רבה,32.100308,34.969446
39670,קיבוץ גלויות/דרך בגין,32.096941,34.97054
39672,צרכניה,32.404859,34.871657
39673,מעלה האשלים/דרך החוף,32.404446,34.870048
39675,שדרות בן גוריון/עוזי חיטמן,32.283045,34.845489
39676,אלונים/המורן,32.302364,34.879437
39681,דרך הפארק/אלונים,32.30335,34.880315
39684,מחלף ירקון,32.119907,34.903229
39685,מחלף ירקון,32.120694,34.904657
39686,מחלף ירקון,32.12281,34.903897
39690,קניון ערים/וייצמן,32.176261,34.903576
39705,מחלף קסם,32.119458,34.93836
39707,צומת רכבת ראש העין צפון,32.123156,34.93743
39709,מחלף קסם,32.114882,34.941641
39711,פארק תעשיות,32.284876,34.872539
39714,האגוז/הדגנית,32.125427,34.98759
39715,האגוז/האתרוג,32.127341,34.986763
39716,האלון/היקינטון,32.131553,34.987615
39717,נווה ימין/מזרח,32.176573,34.938396
39718,ת. רכבת נתניה,32.320514,34.86809
39719,מסוף וולפסון,32.036865,34.762099
39722,רבוצקי/דוד אלעזר,32.184212,34.886282
39723,האוניברסיטה הפתוחה/רבוצקי,32.188321,34.887123
39725,מרכז לקשיש/ההגנה,32.188954,34.868116
39726,פרדס משותף/הרצל,32.175277,34.8665
39730,העצמאות/העלייה,32.321123,34.927404
39732,צומת קלנסאווה,32.288955,34.985955
39733,צומת קלנסאווה,32.290139,34.985113
39734,מעבר אייל,32.201503,34.971678
39735,מעבר אייל,32.201417,34.971714
39736,שדרות העצמאות/רוטשילד,32.026569,34.748079
39737,דוד אלעזר/קרן היסוד,32.007736,34.784654
39738,צומת חניאל,32.319805,34.940005
39739,ההסתדרות/שנקר,32.017521,34.774012
39741,צומת ינוב,32.314739,34.958096
39742,צומת תנובות,32.31417,34.963918
39743,האיכרים/המצודה,32.028945,34.799932
39744,צומת בארותיים לדרום,32.311386,34.984668
39745,משה שרת/הרצוג,32.028392,34.802434
39747,המנור/הרוקמים,32.006283,34.804331
39749,קמפוס חנקין/חנקין,32.016078,34.778599
39750,מרכז רפואי מכבי הופיין,32.014255,34.766926
39751,מחלף ירקון,32.122112,34.902396
39755,קמפוס חנקין/חנקין,32.015703,34.778475
39756,צומת טירה,32.23227,34.984439
39757,צומת טירה,32.231469,34.983791
39758,צומת טייבה,32.270527,35.002691
39761,פארק תעשיות,32.285706,34.872521
39763,הכלנית/החבצלת,32.137144,34.948589
39764,שלדג/שביל השקיעה,32.406903,34.873163
39765,המלאכה/האורגים,32.012089,34.797033
39766,בי''ס מבואות ים,32.403995,34.869589
39767,יד חרוצים/התרופה,32.283039,34.865028
39769,ת. מרכזית נתניה,32.326689,34.859446
39770,בגין/פנחס אילון,32.004807,34.778631
39771,פנחס אילון/בגין,32.004839,34.776296
39772,תרי עשר/אלישע,32.191338,34.939757
39774,מיי מול/פנחס אילון,32.008859,34.778158
39775,הרוקמים/הבנאי,32.008484,34.800141
39776,הלהב/הרוקמים,32.007227,34.801097
39778,עמק החולה/עמק זבולון,32.181068,34.93512
39779,עמק החולה/משעול עמק חפר,32.179266,34.93505
39781,הגפן/סמטת הרימון,32.016848,34.945729
39782,הגפן/סמטת האורן,32.018203,34.944904
39784,מרכז היישוב,32.030389,34.933799
39785,האורן/הברוש,32.043999,34.898296
39787,האורגים/המרכבה,32.007791,34.807276
39788,'נחשונים ב,32.060743,34.949042
39789,דרך יצחק רבין/העצמאות,32.07449,34.860039
39790,עמק החולה/עמק איילון,32.178488,34.935162
39791,קניון ג'י/וייצמן,32.170317,34.92668
39792,נורדאו/רופין,32.170319,34.918654
39794,תחנת רכבת נורדאו,32.167612,34.917442
39795,ת. רכבת סוקולוב,32.170307,34.902028
39796,דרך קדומים/חטיבת הנח''ל,32.181798,34.934423
39797,דרך קדומים/חטיבת יפתח,32.182059,34.933072
39798,קדומים/המוביל,32.18241,34.931742
39799,דרך המוביל/בקעת בית נטופה,32.182642,34.930792
39800,דוכיפת/דרך המוביל,32.183949,34.930662
39801,דרך המוביל/דוכיפת,32.184437,34.930744
39802,דרך המוביל/העגורים,32.185831,34.930829
39803,נחליאלי/עפרוני,32.18696,34.929678
39805,הזמיר/הנשר,32.185322,34.928232
39806,זמיר/נחליאלי,32.186429,34.928379
39807,זמיר/הנשר,32.184479,34.927904
39808,קאנטרי קלאב/בן יהודה,32.183241,34.927043
39809,מטווח עירוני/בן יהודה,32.183186,34.922955
39810,מרכז פיס למדעים ואומנויות/בן יהודה,32.183182,34.920514
39812,אז''ר/פרופ' דינור,32.182046,34.917934
39813,טירת צבי/הגליל,32.180817,34.917807
39814,אז''ר/תל חי,32.182009,34.917678
39815,יבנה/חברון,32.180757,34.915194
39816,בר אילן/נחל הדס,32.181731,34.913225
39817,אז''ר/בר אילן,32.182884,34.914328
39818,זמנהוף/משה דיין,32.177881,34.920374
39819,בי''ס גורדון/הגליל,32.177963,34.918212
39820,הגליל/נעורים,32.176536,34.917749
39821,הכרמל/תל חי,32.176925,34.914404
39822,תחנה מרכזית כפ''ס/ויצמן,32.173927,34.91483
39824,הכרמל/משעול השיר,32.177581,34.911545
39826,הכרמל/העבודה,32.178461,34.907682
39827,השחר/השלום,32.180341,34.909755
39829,קניון ערים/ברל כצנלסון,32.177999,34.902905
39830,בי''ח מאיר/טשרניחובסקי,32.181056,34.897786
39831,בי''ח מאיר/טשרניחובסקי,32.181197,34.897648
39832,טשרניחובסקי/גולומב,32.179132,34.895692
39833,מכבי אש/טשרניחובסקי ,32.179587,34.895908
39834,טשרניחובסקי/לילנבלום,32.182538,34.899128
39835,טשרניחובסקי/סמילנסקי,32.18366,34.900633
39836,טשרניחובסקי/בן יהודה,32.1865,34.903738
39837,טשרניחובסקי/שד' מנחם בגין,32.186513,34.903427
39838,שד' מנחם בגין/טשרניחובסקי,32.187232,34.9034
39839,טשרניחובסקי/רמז,32.187546,34.904511
39840,דוד רמז/טשרניחובסקי,32.187997,34.904513
39841,טשרניחובסקי/כנפי נשרים,32.189018,34.906165
39842,טשרניחובסקי/כנפי נשרים,32.189203,34.906032
39843,דוד רמז/האחווה,32.189835,34.902716
39844,מרכז מסחרי/רמז,32.190361,34.902012
39845,דוד רמז/ויתקין,32.190849,34.900726
39846,דוד רמז/ויתקין,32.191134,34.899803
39847,רמז/מרכז הנוער,32.191382,34.896854
39848,שד' מנחם בגין/משה סנה,32.189361,34.898453
39849,שד' מנחם בגין/משה סנה,32.188521,34.899542
39850,ד''ר משה סנה/אהוד מנור,32.18737,34.896917
39851,מדרשית נעם/ד''ר משה סנה,32.18525,34.896139
39852,אזור תעשיה סנטרל פארק 2000,32.161871,34.933991
39853,אזור תעשיה סנטרל פארק 2000,32.161913,34.934127
39854,אזור תעשיה סנטרל פארק 2000,32.161272,34.935371
39855,אזור תעשיה סנטרל פארק 2000,32.161011,34.936205
39856,תרי עשר/גדעון,32.191938,34.937308
39857,ישעיהו/בת יפתח,32.19008,34.937597
39858,השחר/פינס,32.18191,34.910248
39859,תיכון גלילי/אשר ברש,32.184913,34.907705
39860,תיכון גלילי/אשר ברש,32.185055,34.90764
39862,קריית חינוך/אז''ר,32.183877,34.909939
39863,קריית חינוך/אז''ר,32.18342,34.91155
39864,יערה/לוינסקי,32.185971,34.899848
39867,בן גוריון/פרדס משותף,32.175102,34.869283
39870,תיכון אביב/הפרחים,32.177535,34.861213
39872,המלכים/יעקב דורי,32.179713,34.860052
39874,מכון טכנולוגי חולון/פיכמן,32.013642,34.775162
39875,המלכים/יצחק שדה,32.182551,34.860937
39876,הנשיאים/וינגייט,32.184962,34.861692
39877,הנשיאים/וינגייט,32.185877,34.861952
39879,החי''ל/חפץ חיים,32.185321,34.86754
39880,חפץ חיים/החי''ל,32.184593,34.867791
39882,אלי כהן/חפץ חיים,32.1865,34.868377
39883,קרן היסוד/גולומב,32.183549,34.871097
39884,קרן היסוד/גולומב,32.182967,34.870675
39885,בורוכוב/הנגב,32.181409,34.876502
39886,בורוכוב/החשמונאים,32.185425,34.877762
39887,ההסתדרות/בורוכוב,32.185942,34.877544
39889,ההסתדרות/בר אילן,32.186606,34.874965
39890,ההסתדרות/קרן היסוד,32.186981,34.872855
39891,בורוכוב/ההגנה,32.187434,34.878435
39892,בורוכוב/הפלמ''ח,32.190853,34.878208
39893,תיכון מטרו-ווסט/הפלמ''ח,32.190606,34.876231
39894,תיכון מטרו-ווסט/בורוכוב,32.189883,34.878353
39895,בורוכוב/ברל כצנלסון,32.191584,34.878189
39896,בורוכוב/וייצמן,32.192385,34.878513
39897,בורוכוב/וייצמן,32.192594,34.877273
39898,ויצמן/קרן היסוד,32.19232,34.875196
39899,קרן היסוד/וייצמן,32.191924,34.874179
39900,שדרות וייצמן/החרושת,32.192441,34.880435
39901,דרך הים/הזית,31.818892,34.691152
39902,עקיבא/האלה,32.188874,34.883296
39903,עקיבא/הירדן,32.188917,34.883046
39905,בית המילניום/התדהר,32.192173,34.883956
39907,התדהר/התעשיה,32.196211,34.88436
39908,התדהר/התעשייה,32.197342,34.884461
39910,התעשייה/זרחין,32.196839,34.883406
39911,החרושת/המסגר,32.194992,34.880654
39912,החרושת/המסגר,32.195385,34.880484
39913,החרושת/ויצמן,32.193588,34.880767
39914,החרושת/ויצמן,32.19311,34.880992
39915,קניון רננים,32.196602,34.879661
39917,הסדנא/התעשייה,32.195985,34.878688
39918,קאנטרי/הסדנא,32.193914,34.878379
39919,אסתר המלכה/עתידים,32.197303,34.875598
39920,דב הוז/יוחנן בן זכאי,32.195644,34.873984
39921,דב הוז/סעדיה גאון,32.193519,34.873504
39922,שדרות וייצמן/יפה ירקוני,32.192576,34.871885
39923,וייצמן/קרן היסוד,32.192327,34.873682
39924,מקלט/שמואל הנגיד,32.191118,34.871376
39925,איזי שפירא/שבזי,32.190079,34.869461
39927,קרן היסוד/הקוממיות,32.189581,34.873036
39928,קרן היסוד/ההסתדרות,32.187037,34.871954
39929,מרכז לקשיש/מרדכי אנילביץ',32.188582,34.868288
39930,מגדל/ההגנה,32.189084,34.866327
39931,המחתרות/שפינוזה,32.189625,34.864841
39932,גולדה מאיר/משה שרת,31.934081,34.854318
39936,יוספטל/מבצע סיני,32.015793,34.758836
39937,רוז'נסקי/דוד רזיאל,31.987031,34.770425
39938,רוז'נסקי/דוד רזיאל,31.986975,34.770778
39939,ספרייה/החרוב,32.328543,34.946045
39940,'כפר הס ד,32.247858,34.930224
39941,מסוף קניון הזהב,31.989034,34.775225
39942,אברהם בר/רוז'נסקי,31.985865,34.774205
39943,קניון הזהב/דוד סחרוב,31.989251,34.774917
39945,מרכז מסחרי/שרון,31.985879,34.915081
39947,דרך מנהרת העיר/דרך לוד הירוקה,31.946499,34.9047
39948,שדרות וייצמן/דרך ירושלים,32.192725,34.856196
39950,אלימלך רימלט/הגלבוע,32.195512,34.849866
39951,מגרש טניס/יאיר שטרן,32.194755,34.847869
39952,ספורטק/שדרות וייצמן,32.19256,34.862538
39953,ספורטק/שדרות וייצמן,32.192364,34.863985
39954,שדרות וייצמן/מגדל,32.192458,34.866262
39955,מרכז אליאב/שברץ,32.179515,34.881524
39957,מכולת,32.274807,34.965774
39958,בית ספר דקל/שברץ,32.182834,34.882013
39959,אחוזה/בן גוריון,32.180347,34.87197
39961,מסוף רעננה/הפנינה,32.1754,34.889928
39962,עקיבא/ציפמן,32.185264,34.882351
39963,בן גוריון/אוסטרובסקי,32.179055,34.870855
39964,עקיבא/אח''י דקר,32.186686,34.882682
39966,סוקולוב/ששת הימים,32.173533,34.901697
39968,בלום/גאולה,32.172734,34.899095
39969,זאב גלר/מעלה האורנים,32.173658,34.896364
39970,בי''ס יגאל אלון/שד' ששת הימים,32.175701,34.896549
39971,אנצו סירני/הכובשים,32.179395,34.893362
39972,אנצו סירני/קיבוץ גלויות,32.18057,34.891921
39973,אנצו סירני/חביבה רייק,32.180391,34.89059
39974,מדרשית נעם/ד''ר משה סנה,32.185015,34.896572
39976,שפרינצק/יחיעם,32.181311,34.905309
39977,תיכון רבין/החי''ש,32.184376,34.912892
39978,בי''ס בר לב/תל חי,32.18346,34.916941
39979,בן גוריון/רוטשילד,32.172638,34.907274
39980,קניון ערים/ברל כצנלסון,32.178664,34.903331
39981,חיים ויצמן/יצחק בן צבי,32.166024,34.909163
39984,חיים ויצמן/יצחק בן צבי,32.165835,34.910008
39987,הגיבור/שחר,32.150048,34.891951
39988,הגיבור/המעלה,32.14996,34.894013
39991,הציונות/היהלום,32.146603,34.88578
39992,הציונות/היהלום,32.146251,34.885713
39993,ז'בוטינסקי/הדסים,32.143359,34.883087
39994,ז'בוטינסקי/האשל,32.143206,34.879323
39995,קניון שרונים/הרקון,32.133883,34.901937
39996,שמעון הצדיק/החשמונאים,32.135598,34.901128
39997,שד. עמק איילון/כיכר אגמית,32.006593,34.950234
39998,שד. עמק איילון/כיכר שקנאי,32.006036,34.949396
40001,אמפיתאטרון,32.496682,34.892801
40003,קיבוץ שדות ים,32.494159,34.89262
40005,מושב בית חנניה,32.529115,34.926359
40006,קיבוץ שדות ים,32.494921,34.89336
40007,גן לאומי קיסריה,32.501807,34.894139
40008,השלום/אהרון אהרונסון,32.447002,34.895074
40009,אהרון אהרונסון/השלום,32.446166,34.894992
40012,אהרון אהרונסון/השלום,32.44634,34.895262
40015,בית חולים הלל יפה,32.452752,34.897047
40016,ישיבת בני עקיבא/השלום,32.450074,34.897386
40017,אהרון אהרונסון/הר צין,32.446238,34.897657
40019,בית חולים הלל יפה,32.451454,34.89828
40023,השלום/בר אילן,32.4529,34.900022
40024,אהרון אהרונסון/יגאל אלון,32.444816,34.900603
40025,אהרון אהרונסון/יגאל אלון,32.443981,34.900883
40029,אהרון אהרונסון/יצחק גרינבוים,32.443174,34.901604
40032,נאות גולף,32.490087,34.902586
40033,מלון קיסריה,32.49891,34.90381
40036,הדר/אתרוג,32.517536,34.903943
40040,רוטשילד/הרימון,32.50987,34.904707
40041,צומת מלון קיסריה,32.502765,34.903871
40042,רוטשילד/המגדל,32.50476,34.904175
40045,מרכז מסחרי/השלום,32.454547,34.904619
40046,מועדון הגולף/רוטשילד,32.5021,34.904982
40048,מלון קיסרית,32.510795,34.905056
40049,כביש 6511/רוטשילד,32.503397,34.905875
40053,דוד שמעוני/גשר אריאל שרון,32.439788,34.905516
40054,הדר/מנדרינה,32.515579,34.905485
40059,צומת חפציבה/כביש 4 לדרום,32.457375,34.9071
40060,צומת חרושת,32.454646,34.907116
40067,רוטשילד/זמיר,32.528991,34.907368
40068,רוטשילד/איריס,32.520182,34.90778
40071,צומת חפציבה/כביש 4 לצפון,32.458101,34.907865
40072,הדר/רוטשילד,32.526687,34.908117
40073,כביש 4/חוף הכרמל,32.451889,34.908517
40076,רוטשילד/סנפיר,32.522972,34.90885
40078,דוד שמעוני/קלז,32.438956,34.909169
40079,שערי חדרה/כביש 4,32.433537,34.909543
40082,אזור תעשיה דרומי,32.446689,34.910224
40092,כביש 4/שדרות החרות,32.442749,34.911323
40094,בית עלמין,32.409433,34.912002
40095,צומת חדרה,32.438467,34.911828
40096,בית עלמין,32.409827,34.912271
40097,צומת נחל חדרה,32.464412,34.912191
40098,צומת נחל חדרה,32.465318,34.912969
40102,ביאליק/הרצל,32.508066,34.913451
40104,ת. מרכזית חדרה,32.436231,34.913683
40110,ת. מרכזית חדרה,32.435313,34.914144
40111,ביאליק/רוטשילד,32.506605,34.913966
40116,תיכון חדרה/רמב''ם,32.439226,34.914206
40117,צומת נחל חדרה,32.465712,34.914414
40118,מנחם ציוני/עליזה יאנסן,32.511724,34.914608
40120,הרצל/מנחם ציוני,32.510375,34.914931
40127,יצחק בן צבי/יוסף ספיר,32.426893,34.915482
40133,רוטשילד/מנחם ציוני,32.50652,34.915657
40134,יצחק בן צבי/אסירי ציון,32.431848,34.915757
40135,יצחק בן צבי/אסירי ציון,32.431763,34.915582
40136,ביטוח לאומי/אחד העם,32.435696,34.915835
40140,בית ספר תר''מ/הרימון,32.406403,34.916386
40143,אבן גבירול/חיים הזז,32.514893,34.91572
40144,הלל יפה/הרברט סמואל,32.437756,34.917382
40146,בית ספר יאנסן/עליזה יאנסן,32.512445,34.916852
40147,הנשיא וייצמן/הלל יפה,32.43984,34.919024
40148,עליזה יאנסן/שדרות הנשיא ויצמן,32.512799,34.918257
40153,שדרות ירושלים/יהודה הלוי,32.514359,34.918687
40154,דוד אלעזר/ הנשיא,32.513492,34.918775
40159,שד. הנשיא וייצמן/סמטת חי טייב,32.512395,34.919256
40160,שד. הנשיא וייצמן/סמטת חי טייב,32.511751,34.919206
40161,צומת פל ים,32.479664,34.91953
40163,שד. הנשיא וייצמן/הגיבורים,32.50986,34.91984
40166,כיכר צ'רנין/כביש 6511,32.503389,34.918474
40169,פרנק/דוד שמעוני,32.439188,34.906662
40171,ויצמן/הרצוג,32.508081,34.919993
40172,שד. הנשיא וייצמן/הרצוג,32.508255,34.920171
40174,צומת פל ים,32.481227,34.920404
40175,צומת פל ים,32.48007,34.920973
40177,הזית/ההדס,32.51613,34.921117
40179,אחד העם/סמסונוב,32.434361,34.92092
40180,הנשיא וייצמן/הבנים,32.439472,34.921058
40181,הנשיא וייצמן/הבנים,32.439335,34.920875
40184,הרברט סמואל/שד. רוטשילד,32.435763,34.921744
40188,שדרות דוד המלך/גלפנשטיין,32.500749,34.921172
40189,שד. דוד המלך/הרימון,32.49816,34.921163
40191,שדרות דוד המלך/הסיגלית,32.499358,34.92116
40192,הרימון/שדרות דוד המלך,32.497594,34.922018
40193,שד. שידלובסקי/ניל''י,32.505021,34.921759
40195,הגיבורים/הרברט סמואל,32.435637,34.922242
40196,מרכז מבנה תעשיה/הזית,32.516313,34.92106
40197,הגיבורים/הרברט סמואל,32.436292,34.922659
40199,הזית/הערבה,32.516749,34.923135
40200,הגיבורים/העלייה הראשונה,32.436167,34.922872
40202,הגיבורים/הנשיא וייצמן,32.439003,34.922755
40203,ז'בוטינסקי/הגיבורים,32.431897,34.923052
40205,הזית/הערבה,32.516655,34.923941
40207,הגיבורים/הנשיא וייצמן,32.438194,34.923278
40209,הגפן/וייצמן,32.501291,34.924048
40210,תרנ''א/ז'בוטינסקי,32.432007,34.923957
40211,הרימון/התאנה,32.497598,34.924251
40212,הרברט סמואל/הגיבורים,32.435288,34.92362
40214,הנשיא וייצמן/לבוצקין,32.438454,34.924815
40216,תמר/התאנה,32.499955,34.924795
40219,אזור תעשיה,32.501901,34.924033
40221,אזור תעשיה,32.504857,34.925387
40222,צומת גבעת חביבה,32.457726,35.019386
40224,קופלוביץ/וייצמן,32.503158,34.925663
40225,הרברט סמואל/חטיבת גולני,32.434947,34.925583
40227,הנשיא וייצמן/ירושלים,32.437864,34.92632
40228,צומת אור עקיבא למערב,32.501394,34.926538
40230,צומת אור עקיבא למזרח,32.501126,34.926734
40232,חטיבת גולני/חברת עזרא,32.434509,34.927232
40237,צה''ל/ארלוזורוב,32.438079,34.927733
40239,חטיבת הנח''ל/חברת עזרא,32.432462,34.928386
40240,צומת בית חנניה,32.533345,34.928702
40241,צומת בית חנניה,32.534573,34.9289
40243,בית חנניה,32.523128,34.929403
40244,בית חנניה,32.524416,34.929649
40246,צה''ל/האקליפטוס,32.439274,34.929769
40247,צה''ל/האקליפטוס,32.439432,34.930418
40249,צומת בנימינה,32.518144,34.930064
40251,צומת בנימינה,32.517476,34.930838
40252,מתחם מיקס/צה''ל,32.440952,34.931872
40253,צומת מעגן מיכאל,32.556372,34.931537
40254,צומת מעגן מיכאל,32.557385,34.93226
40255,מתחם מיקס/צה''ל,32.441546,34.932949
40256,צה''ל/ארבע אגודות,32.441688,34.932772
40257,זיסו/יפו,32.827351,34.987691
40258,דרך העצמאות/הנדיב,32.52383,34.934878
40260,דרך העצמאות/נורית,32.527128,34.935506
40262,חטיבת הנחל/נחל צין,32.431123,34.936463
40267,משטרה/שדרות ניל''י,32.571946,34.938368
40268,בי''ס עירון,32.431015,34.938727
40269,דרך העצמאות/אירית,32.522086,34.938185
40270,בר יהודה/גשר פז,32.798692,35.017746
40271,בר יהודה/גשר גדוד 21,32.795426,35.021788
40272,דרך העצמאות/הנביאים,32.520151,34.940139
40273,הסתדרות/צומת קרית אתא,32.810104,35.06881
40274,651/השיטה,32.479413,34.941063
40275,יפה נוף/ההגנה,32.43205,34.941962
40276,651/השיטה,32.479206,34.942276
40279,דרך ניל''י/ההגנה,32.521744,34.942905
40280,צומת חדרה מזרח,32.447528,34.942586
40281,צומת חדרה מזרח,32.447225,34.943832
40284,651/השיטה,32.478797,34.944003
40285,החלוצים/צור,32.569238,34.943364
40287,החלוצים/צור,32.568989,34.943299
40290,העצמאות/התמרים,32.431304,34.944289
40293,אבא חושי/שער חיפה,32.765431,35.013792
40294,הפרדס/שפק,32.422696,34.9447
40295,דרך בירם/יגאל אלון,32.77423,35.011449
40297,מלל/יערי,32.779589,35.014026
40300,הגיבורים/נחלת ז'בוטינסקי,32.526252,34.945602
40301,דרך המסילה/דקל,32.522428,34.945811
40302,שפק/אילת,32.417874,34.945886
40303,הפרדס/השיזף,32.42024,34.946745
40305,651/חלמיש,32.479294,34.947039
40307,הפרדס/הפקאן,32.419161,34.947302
40308,העצמאות/שד. האביב,32.427745,34.947432
40309,טכניון/בית ספר להנדסאים,32.776017,35.027276
40310,חלמיש/תרשיש,32.483237,34.948257
40311,טכניון/הנדסה כימית,32.778556,35.027195
40312,צומת חדרה מזרח,32.448017,34.943383
40314,הפרדס/שקצר,32.416563,34.94984
40318,נשר/דוכיפת,32.464386,34.949952
40320,יגור/כפר חסידים,32.74678,35.078856
40321,תרשיש/גרניט,32.484126,34.949922
40322,מחלף יגור,32.752167,35.071543
40324,אנקור/נחליאלי,32.462921,34.950599
40327,ת. רכבת בנימינה,32.512877,34.950424
40328,התאנים/רבי ציון חדד,32.419837,34.950802
40330,השיזף/יציאת אירופה,32.42395,34.950512
40332,הפרדס/וולפברג,32.415334,34.951508
40333,השושנים,32.417116,34.951804
40335,זמיר/תחייה,32.465653,34.952132
40339,הרצל/יעבץ,32.573677,34.952075
40341,הרצל/שדרות נילי,32.572073,34.952142
40343,דרך הגרנות/הרצל,32.570299,34.952244
40345,נשר אצטדיון,32.765934,35.052748
40346,יציאת אירופה/גדות,32.422309,34.952502
40349,דרך למרחב/חבקוק,32.472332,34.953482
40351,השיקמה/התאנים,32.416018,34.95276
40352,בר יהודה\השיש,32.781777,35.033972
40355,המסילה/מלאכי,32.477711,34.953299
40356,דרך למרחב/חבקוק,32.472611,34.952711
40358,התחייה/הכרם,32.470011,34.953415
40359,כפר תפוז/652,32.542668,34.953836
40360,המסילה/מלאכי,32.477792,34.953572
40362,נשר אצטדיון,32.765615,35.052676
40365,מוסד סביון/652,32.543311,34.95419
40366,המייסדים/דרך הגרנות,32.569798,34.954024
40370,דרך למרחב/תחייה,32.472017,34.954438
40381,ספרייה/הדגן,32.569477,34.95541
40385,אדנים/מלאכי,32.47823,34.954827
40386,אנקור/חסידה,32.462786,34.954776
40388,צומת גן שמואל,32.447241,34.955293
40390,זבוטינסקי/הנדיב,32.573619,34.955315
40392,בית ספר צליל/השיקמה,32.416179,34.955222
40396,חסידה/בית אל,32.465263,34.956163
40397,דרך למרחב/הגאון,32.4721,34.956202
40401,דרך אהרון/חווה חקלאית,32.565948,34.956854
40402,דרך אהרון/דרך שרה,32.566511,34.956423
40403,השיקמה/גן ציבורי,32.421138,34.956538
40404,בית ספר אורט/כביש 652,32.546158,34.956234
40408,דרך למרחב/הגאון,32.471843,34.95727
40409,צומת עדה,32.511048,34.956612
40410,צומת גרנות/גן שמואל,32.447577,34.955859
40415,אורט השומרון/כביש 652,32.546206,34.956387
40420,צומת גרנות/גן שמואל,32.447713,34.957584
40421,גני רמת הנדיב/652,32.553549,34.957078
40423,גני רמת הנדיב/652,32.555117,34.957381
40424,צומת עדה,32.510143,34.957631
40425,בית אל/חשמונאים,32.466403,34.957425
40427,מפעלי חן/כביש 652,32.551264,34.957393
40428,בית ספר חורב/חשמונאים,32.464674,34.957903
40429,צומת עדה,32.511005,34.957873
40437,דרך אהרון/כביש 652,32.561821,34.958398
40438,חשמונאים/מודיעין,32.467642,34.958131
40439,חשמונאים/מודיעין,32.468827,34.958231
40441,דרך למרחב/חשמונאים,32.471603,34.959461
40446,דרך למרחב/חשמונאים,32.471815,34.959358
40447,חשמונאים/חגי,32.476133,34.95931
40449,דרך הים/דרך הרכבת,32.479496,34.958481
40450,דרך שרה/כ''ט בנובמבר,32.566479,34.960811
40451,דרך שרה/קדמה,32.567266,34.95893
40452,צומת אלון,32.448997,34.960741
40453,דרך למרחב/שבי ציון,32.471492,34.96213
40457,צומת אלון,32.450199,34.961642
40458,צומת תלמי אלעזר,32.449809,34.963141
40462,בית אריזה/דרך פיק''א,32.452703,34.962711
40463,בית אריזה/דרך פיק''א,32.453543,34.963147
40468,מצדה/מכבים,32.466362,34.963568
40470,דרך למרחב/תל צבי,32.471226,34.964188
40472,עציון/חברון,32.46689,34.964635
40474,גבעת נאה,32.458415,34.964968
40476,גבעת נאה,32.458436,34.965086
40481,מחנה   פרדות,32.492285,34.967113
40483,דרך למרחב/הבוטנים,32.472716,34.968035
40486,דרך פיק''א/שלומציון המלכה,32.465819,34.967842
40488,דרך פיק''א/שלומציון המלכה,32.466559,34.968636
40489,דרך למרחב/הבוטנים,32.473122,34.968444
40494,דרך למרחב/המעלה,32.473744,34.970158
40497,פרדס חנה כרכור,32.452085,34.970652
40498,פרדס חנה כרכור,32.452308,34.970574
40504,דרך למרחב/המעלה,32.474082,34.970408
40505,העצמאות/מנדלי מוכר ספרים,32.808528,35.104293
40507,זבולון/התעלה,32.804671,35.09867
40508,זבולון/קרית פרוסטיג,32.804253,35.095325
40509,זבולון/שיבת ציון,32.80392,35.092606
40510,פיק''א/הבוטנים,32.469225,34.971802
40512,זבולון/אנדרטת לחי,32.802626,35.080675
40513,פיק''א/הבוטנים,32.469666,34.972746
40518,דרך חיפה/זבולון,32.803703,35.075304
40519,יד לבנים/דרך הבנים,32.475031,34.973427
40520,זבולון/קק''ל,32.802761,35.08343
40521,יד לבנים/דרך הבנים,32.475086,34.973938
40522,פרדס חנה כרכור,32.452755,34.974217
40528,בית ספר אלונים/הבנים,32.475707,34.975603
40529,בית ספר ארצי לשוטרים,32.821557,35.122794
40533,דרך הנדיב/דרך הבנים,32.47641,34.976143
40534,קריון דרום/ד.עכו חיפה,32.842017,35.08835
40541,בי''ס חקלאי,32.471918,34.977542
40543,אורט ביאליק/שדרות ההסתדרות,32.815284,35.074972
40544,דרך פיק''א/יהודה הלוי,32.471827,34.977569
40545,דרך הנדיב/דרך פיק''א,32.47305,34.978127
40550,דרך הבנים/דרך משמרות,32.476362,34.983079
40551,שדרות נילי/החלוצים,32.57001,34.943994
40553,שער העמקים,32.721431,35.111618
40554,שער העמקים,32.721487,35.112411
40555,מחלף חנה/מחנה 80,32.458464,34.985818
40557,מחלף חנה/מחנה 80,32.457376,34.984447
40561,דרך עירון/המייסדים,32.46727,34.990408
40565,ד''ר דן ויליאם ג'אוי/שד. מינסוטה,32.433544,34.885787
40566,צומת עמיקם,32.517812,34.992001
40569,המייסדים/דרך הבנים,32.474893,34.990538
40570,הרימון/התאנה,32.532615,34.990591
40572,הגפן/הזית,32.529688,34.992914
40575,צומת כרכור,32.46454,34.993136
40576,החלוץ/מלכי ישראל,32.43399,34.887456
40578,מגרש ספורט,32.4047,34.99353
40579,התאנה/הברושים,32.534634,34.993745
40580,התאנה/הברושים,32.534532,34.993614
40581,הגפן/הרימון,32.530008,34.994897
40582,צומת מנשה,32.464459,34.994487
40586,הערבה/הפיקוס,32.403673,34.996259
40588,האורנים/הגבעה,32.52128,34.996596
40589,'גן שומרון ג,32.463013,34.996615
40592,'גן שומרון ד,32.462089,34.99748
40598,צומת עין שמר,32.45994,35.000735
40599,התירוש גבעת עדה/סמדר גבעת עדה,32.518067,35.000436
40601,צומת עין שמר,32.459446,35.001275
40607,גפן/אגוז,32.424045,35.006002
40608,הדקל/רחוב חי,32.515901,35.003654
40610,הדקל/רחוב חי,32.515655,35.003902
40612,רחוב חי/היסמין גבעת עדה,32.515924,35.004902
40613,מזכירות,32.506389,35.004472
40615,צומת שדה יצחק,32.397158,35.005517
40616,חי/הלבונה,32.516314,35.005672
40617,צומת מגל,32.390064,35.006021
40619,צומת להבות חביבה,32.3975,35.00631
40620,צומת להבות חביבה,32.397033,35.006902
40622,אלון/הזית,32.422504,35.006789
40623,האלה/רחוב חי,32.517117,35.00665
40625,רחוב חי/סמטת החבצלת,32.517556,35.007224
40627,'להבות חביבה ב,32.397103,35.007784
40628,רחוב חי/הרימון,32.519974,35.008616
40630,הרימון/רויטל,32.519883,35.009102
40632,'להבות חביבה א,32.397121,35.009356
40634,צומת מאור,32.422817,35.010932
40636,הרימון גבעת עדה/סמטת החצב,32.520053,35.010942
40637,הרימון/השעורה,32.519159,35.013923
40638,שער מנשה,32.452343,35.014348
40640,השעורה/הדגן,32.521804,35.014613
40641,בית חולים שער מנשה,32.450189,35.014646
40642,הרימון /מעלה הצבר,32.518502,35.015943
40644,מחנה צבאי,32.432055,35.016416
40645,צומת שער מנשה,32.451891,35.015664
40646,מחנה צבאי,32.432647,35.0163
40647,מגל,32.386029,35.035826
40648,מחנה צבאי,32.434116,35.017088
40649,צומת נרבתה,32.451337,35.01852
40650,כלנית/רקפת,32.562668,35.018088
40652,צומת מענית,32.459595,35.019282
40653,צומת מענית,32.460653,35.019657
40654,צומת נרבתה,32.451727,35.0196
40658,צומת נרבתה,32.450409,35.019545
40667,צומת כלניות,32.443665,35.021373
40668,צומת חריש לצפון,32.472127,35.020284
40671,'עמיקם ג,32.563473,35.021574
40672,צומת כלניות,32.44428,35.021922
40674,צ.מאור,32.443172,35.02208
40676,'עמיקם ב,32.562037,35.022612
40680,צומת ברקאי,32.474285,35.023671
40683,צומת מצר לצפון,32.436761,35.025133
40687,צומת מצר למזרח,32.436566,35.025848
40688,צומת מצר לדרום,32.435848,35.025651
40690,מזכירות,32.474725,35.02732
40691,מבצע עזרא/שיבת ציון,32.43836,34.883835
40692,קיבוץ רגבים,32.525789,35.032398
40694,אלקודס/אלחאאג'ה נפיסה,32.426614,35.032924
40695,השומרון/קרן קיימת לישראל,32.44281,34.886238
40697,אלקודס/חממה,32.425697,35.033724
40699,שבדיה ג,32.767129,35.006342
40700,ברנדייס/האלון,32.422627,34.920835
40701,אלקודס/אלפתח,32.425167,35.035408
40704,ברנדייס/ההדר,32.422724,34.922815
40705,וייצמן י''ב,32.421197,35.040302
40706,כיכר מועצה,32.398578,35.0405
40707,בית העם,32.548149,35.040799
40708,מסוף ג'ת,32.396634,35.041786
40709,פיינברג/נורדאו,32.428051,34.919144
40713,אלקודס/קופת חולים,32.41933,35.045611
40714,צומת מייסר/יציאה,32.440611,35.04331
40715,אחמד אבו עסבה/יאסר ערפאת,32.396013,35.044528
40716,וייצמן י''א,32.419496,35.045116
40722,צומת ג'ת,32.395228,35.046224
40723,דרך ארץ/גמלא,32.46113,35.047463
40725,'מצר א,32.441083,35.04783
40726,מפעל,32.442103,35.047091
40727,צומת ג'ת,32.395045,35.046174
40728,צומת ג'ת,32.395582,35.046702
40730,באקה/כניסה דרומית,32.413261,35.047038
40732,אלקודס/אלמקריזי,32.412093,35.047072
40734,אלקודס/תיכון מקיף,32.409023,35.047619
40735,בריכת שחייה/אלקודס,32.407351,35.048131
40737,צומת בקה אל שרקיה,32.397234,35.048094
40739,'וייצמן ג,32.405605,35.048401
40740,'וייצמן א,32.399421,35.049445
40741,6353/ספיר,32.460733,35.051371
40750,כביש 653/השדה,32.517918,34.934771
40752,צומת אולגה,32.438329,34.890943
40753,חזון אי''ש/הדס,32.568152,34.948885
40755,אליהו בית צורי/אליהו גולומב,32.566077,34.959789
40757,צומת אור עקיבא לדרום,32.500294,34.927745
40758,צומת אור עקיבא לצפון,32.501306,34.928512
40759,ביאליק/סמסונוב,32.431743,34.920492
40760,דוד שמעוני/מכללה,32.439643,34.905295
40761,דוד שמעוני/פרנק,32.439273,34.907004
40762,השלום/האחו,32.453583,34.901862
40763,האר''י/הגר''א,32.452145,34.903313
40764,הגר''א/עליית הנוער,32.450533,34.904104
40765,מבצע יונתן/מבצע חורב,32.459595,34.899392
40766,ברנר/חוף הכרמל,32.451105,34.90769
40768,מועדון רעים,32.449363,34.904948
40769,הגר''א/חוף הכרמל,32.450477,34.904235
40770,האר''י/הגר''א,32.452327,34.903446
40771,אהרונוביץ'/בלינסון,32.447439,34.904443
40772,צומת חדרה,32.438209,34.911987
40775,העצמאות/יציאת אירופה,32.426299,34.95077
40776,קיבוץ גלויות/גדות,32.424252,34.953248
40777,קיבוץ גלויות/בית ספר פאר עם,32.420931,34.95481
40778,העצמאות/שדרות האביב,32.427594,34.947576
40779,העצמאות/כ''ט בנובמבר,32.428974,34.944718
40781,הגיבורים/שאר ישוב,32.442415,34.92472
40782,הגיבורים/הרב ש' צעירי,32.443621,34.925108
40784,אצ''ל/ירושלים,32.444747,34.927928
40785,אחד העם/הרצל,32.435137,34.918083
40786,פיינברג/לוי אשכול,32.428584,34.916235
40787,ירושלים/שפרינצק,32.440272,34.927648
40792,הדרים/הצפירה,32.465782,34.973744
40794,חשמונאים/פדויים,32.470314,34.958551
40796,צומת איטונג,32.481127,34.972526
40797,דרך הבנים/יד לשילוב,32.475822,34.985639
40798,המושב/נעורים,32.470733,34.993874
40799,המושב/אחוזה,32.473011,34.993069
40801,המושב/נעורים,32.470532,34.993879
40802,המושב/אחוזה,32.472729,34.993145
40803,קיבוץ גלויות/הכרם,32.560804,34.961128
40804,דרך אהרון/נווה רמז,32.561069,34.958136
40806,קיבוץ גלויות/מרבד הקסמים,32.561616,34.962984
40810,הנשיא/הרצל,32.573903,34.951356
40811,המייסדים/הנדיב,32.574816,34.954042
40813,התירוש/הגת,32.55836,34.961639
40814,גאולים,32.560452,34.966539
40815,כנפי נשרים/ברק,32.560475,34.964118
40816,הנשיא/השקד,32.573813,34.948087
40817,נילי/קדש,32.571305,34.945428
40818,החלוצים/שד. ניל''י,32.569913,34.942539
40819,נילי/קדש,32.571565,34.946568
40820,ת. רכבת בנימינה,32.515017,34.950199
40821,דרך המסילה/דקל,32.522286,34.945735
40822,מחצבת בנימינה,32.530983,34.945714
40823,הגיבורים/הספיר,32.526724,34.945541
40824,מחצבת בנימינה,32.531884,34.946288
40826,דרך המסילה/ששת הימים,32.516539,34.949665
40827,דרך המסילה/ששת הימים,32.517189,34.949626
40830,חוף דור,32.60968,34.918316
40831,צומת עין איילה,32.628808,34.957777
40832,צומת עין איילה,32.627789,34.957458
40833,מפעלי סיד,32.619035,34.955474
40834,צומת עופר,32.639184,34.958505
40835,צומת עופר,32.640236,34.958717
40836,צומת הבונים,32.642367,34.958627
40837,צומת הבונים,32.643501,34.958789
40838,צומת צרופה,32.648199,34.958993
40839,צומת גבע כרמל,32.662089,34.960079
40840,צומת גבע כרמל,32.662819,34.96026
40841,צומת נחשולים/דור,32.605658,34.952011
40842,צומת נחשולים,32.60634,34.951755
40843,צומת נחשולים/דור,32.606595,34.952366
40844,מפעלי סיד,32.621465,34.956211
40845,צומת עין כרמל,32.676436,34.96162
40846,צומת עין כרמל,32.677454,34.961834
40847,צומת עין הוד,32.702365,34.968957
40848,צומת עין הוד,32.703304,34.969239
40849,חוות אהרונסון,32.710857,34.962667
40850,צומת אורן דרום/כלא 6,32.713239,34.970693
40851,מסעף החותרים,32.752365,34.962668
40852,מסעף כפר גלים,32.764238,34.961821
40853,'כפר גלים א,32.766358,34.958386
40854,'וייצמן ו,32.414288,35.046399
40855,צומת הדואר,32.415883,35.046114
40856,אלקודס/אל ביארק,32.421587,35.040001
40857,אלקודס/אל מוערפה,32.422175,35.038903
40861,צומת ברטעה,32.499317,35.068299
40863,צומת דמון,32.734516,35.039246
40864,גבעת ההגנה,32.742133,35.035582
40865,גבעת ההגנה,32.74367,35.034493
40868,כביש 65/אום אל פאחם א,32.523316,35.132249
40869,כביש 65/אום אל פאחם ב,32.527412,35.141502
40870,אל מדינה/אבו הוריירה,32.517769,35.154451
40871,אל מדינה/אל ח'נדק,32.52977,35.154034
40873,כביש 65/אום אל פאחם ב,32.52348,35.131839
40874,צומת אום אל פחם,32.533601,35.148165
40876,מסעף משירפה,32.551622,35.165088
40880,צומת השומרים,32.70871,35.135991
40881,מעון גיל עם,32.822439,35.13114
40882,מסעף שפרעם צפון,32.821535,35.149518
40883,בית קמה/גיבורי התהילה,32.750905,35.091677
40884,כביש 7223/נחל קדומים,32.750525,35.08771
40885,בית קמה/גיבורי התהילה,32.750715,35.091584
40886,נתן אלבז/גורדון,32.753609,34.97243
40887,ששת הימים/הצנחנים,32.755953,34.972915
40888,ששת הימים/סיני,32.758288,34.972962
40889,ויצמן/נתן אלבז,32.756083,34.971179
40890,הרצל/העצמאות,32.762064,34.97282
40891,השחרור/הרצל,32.763402,34.972803
40892,קניון לב העיר/הרצל,32.764202,34.971667
40893,בית ספר דגניה/הרב קוק,32.765577,34.972812
40894,רמבם/הרב קוק,32.766776,34.974073
40895,רמב''ם/מוצקין,32.768208,34.973803
40896,הרצל/קרן היסוד,32.769261,34.966792
40897,מסעף טירת כרמל/הרצל,32.772031,34.962995
40898,הרצל/צומת טירת כרמל,32.772323,34.964044
40899,הרצל/המלאכה,32.768357,34.967637
40900,מסעף טירת כרמל/הרצל,32.773179,34.96341
40901,קניון לב העיר/הרצל,32.764424,34.971217
40902,קופת חולים כללית /ששת הימים,32.759682,34.972582
40903,לשכת התעסוקה/ז'בוטינסקי,32.760091,34.971777
40904,דרך קרית עמל/עמלים,32.712807,35.103482
40906,דרך קרית עמל/עמלים,32.712961,35.103616
40907,קק'ל / העמק,32.712068,35.117211
40908,קק'ל / העמק,32.711956,35.11642
40909,קקל / יגאל אלון,32.712378,35.11886
40910,מרדכי/יהושע חנקין,32.706966,35.121198
40911,כצנלסון/אלכסנדר זייד,32.706857,35.123604
40912,כצנלסון/אלכסנדר זייד,32.707282,35.123845
40913,כיכר הציונות,32.711688,35.125015
40914,חנה סנש/יזרעאל,32.710934,35.129506
40915,חנה סנש/בן צבי,32.711127,35.12738
40916,צומת קרית טבעון/האלונים,32.712736,35.125069
40917,אלונים/הרימונים,32.715943,35.124415
40918,אלונים/סמטת הלבנה,32.716826,35.126544
40919,בית ספר רימונים,32.716995,35.128928
40920,אלונים/בריכה,32.718823,35.129646
40921,אלונים/סמטת הלבנה,32.717246,35.125661
40922,אלונים/כיכר בן גוריון,32.722066,35.130372
40923,שקדים/האלה,32.723692,35.133621
40924,שקדים/הסיגליות,32.725614,35.135896
40925,בי''ס מיתרים,32.725906,35.13691
40926,השקדים/ציפורנים,32.72392,35.133657
40927,אלונים/כיכר בן גוריון,32.722275,35.130334
40928,שקדים/הורדים,32.727148,35.14057
40929,שקדים / רמת הדסה,32.728585,35.143859
40930,שקדים / רמת הדסה,32.728212,35.143237
40931,השקדים/המרגניות,32.727196,35.1403
40932,החלוצים/יפה נוף,32.762078,35.047117
40933,העליה/הכלניות,32.759324,35.048293
40934,העליה/האילנות,32.760841,35.045948
40935,בית ספר בית יהושוע,32.763375,35.051487
40936,הכלניות/התשבי,32.764809,35.052245
40937,קיבוץ גלויות/הרקפות,32.761487,35.048212
40938,החלוצים/האילנות,32.76309,35.047659
40939,קיבוץ גלויות/סימטת הבריכה,32.763507,35.048782
40940,הרקפות/הכלניות,32.759764,35.048666
40942,דרך משה/קרן היסוד,32.766901,35.048217
40943,קרן היסוד/דרך משה,32.767546,35.046152
40944,הביטחון/החרושת,32.776371,35.039461
40945,הקצר/מעלה הגיבורים,32.776405,35.036788
40946,הקצר/הביטחון,32.776608,35.036632
40947,מעלה הגיבורים/מצפה,32.776677,35.035153
40948,מעלה הגיבורים/מצפה,32.776674,35.034852
40949,ההסתדרות/דרך הטכניון,32.775787,35.034587
40950,ההסתדרות/דרך הטכניון,32.775461,35.035116
40951,דרך הטכניון/ההסתדרות,32.775176,35.034615
40952,דרך הטכניון/נתיב הים,32.776156,35.032393
40953,דרך הטכניון/נתיב הים,32.77645,35.03162
40954,דרך הטכניון/המתמיד,32.775367,35.033902
40955,עמוס/סיני,32.775472,35.031297
40958,תעש טירה,32.781207,34.962876
40959,פינלנד/נורבגיה,32.767423,34.994559
40960,שבדיה/פינלנד,32.766424,34.998801
40961,'שבדיה ב,32.766807,35.004448
40962,שבדיה ה,32.766461,35.009315
40963,שבדיה/ליבריה,32.766511,35.011114
40964,איצטדיון סמי עופר/לדרום,32.78459,34.962626
40965,ההגנה/רוטנברג,32.785647,34.962823
40967,נווה דוד,32.805406,34.957982
40969,אבא חושי/ווטסון,32.778399,34.994119
40970,אבא חושי/איינשטיין א,32.777533,34.998962
40971,אבא חושי/ווטסון,32.778041,34.994441
40972,אבא חושי/קויפמן,32.778009,34.996492
40973,חורב/גבעת דאונס,32.780348,34.991918
40974,חורב/יאנוש קורצאק,32.782125,34.989069
40975,חורב/גבעת דאונס,32.77992,34.992203
40976,מרכז חורב/חורב,32.784166,34.986637
40977,מרכז חורב/פיקא,32.785094,34.98734
40978,פיקא/אורן,32.786755,34.989752
40979,חורב/מאפו,32.787024,34.985451
40980,מוריה/מאפו,32.787737,34.986077
40981,אורן/פיקא,32.786536,34.99229
40982,אורן/שיקמה,32.78528,34.99407
40983,סמולנסקין/הרופא,32.785772,34.984048
40984,מרכז חורב/סמולנסקין,32.784126,34.985908
40985,פיקא/הראל,32.78773,34.991575
40986,מוריה/קרית ספר,32.788997,34.986546
40987,יותם/קרית ספר,32.79044,34.987012
40988,קרית ספר/מוריה,32.789992,34.98761
40989,מוריה/מעברות,32.792719,34.986281
40990,מוריה/ספקטור,32.794261,34.985432
40991,יותם/מוריה,32.79043,34.986861
40992,ד'ישראלי,32.78722,34.988806
40993,ד'ישראלי/מרכז חורב,32.785275,34.986517
40994,פיקא/הראל,32.787918,34.991564
40995,הפלמח/הצלפים,32.788785,34.993105
40996,השיקמה/פיקא,32.787158,34.993896
40997,מרכז מסחרי/אורן,32.784437,34.996351
40998,אורן/הפרחים,32.783112,34.997123
40999,הפלמח/קרן היסוד,32.789384,34.996561
41000,קרן היסוד/משמר הגבול,32.789699,34.997466
41001,בית ספר בן גוריון/קרן היסוד,32.790281,35.000164
41002,קרן היסוד,32.789207,35.001503
41003,קרן היסוד/רופין,32.787407,34.998037
41004,חנה/יהודית,32.797682,34.97585
41005,נעמי/לאה,32.798701,34.973216
41006,הפלמח/הראל,32.788944,34.992977
41007,בועז/רחל,32.796977,34.979448
41008,יותם/יוכבד,32.795099,34.98811
41009,מוריה/זרובבל,32.79427,34.985212
41010,מוריה/נחשון,32.791805,34.986255
41011,שמשון/יותם,32.796006,34.987074
41012,נעמי,32.797335,34.972689
41013,רות/נעמי,32.795848,34.975338
41014,צפרירים/לוטוס,32.797637,34.981125
41015,צפרירים/ככר היינה,32.797257,34.983246
41016,מוריה/צפרירים,32.797519,34.984391
41017,מוריה/פיגין,32.799904,34.984781
41018,יותם/שמשון,32.795198,34.98795
41019,האסיף/ביכורים,32.798136,34.987243
41020,המלך עוזיהו/המלך דוד,32.810465,34.959573
41021,המלך דוד/המלך עוזיהו,32.81076,34.958867
41022,המלך שלמה/המלך עוזיהו,32.810555,34.960566
41023,האצ''ל,32.811867,34.956389
41024,המלך דוד/אצל,32.811814,34.958412
41025,אצ''ל/המלך דוד,32.813219,34.958498
41026,אצל/הרותם,32.813612,34.959153
41027,אנקואה/האצל,32.815206,34.960348
41028,בית ספר עירוני ה/ביכורים,32.799286,34.988208
41029,בריכת מכבי/ביכורים,32.800717,34.986446
41030,האסיף/קיש,32.799892,34.994402
41031,מוריה/צפרירים,32.797583,34.984206
41032,שדרות מוריה/הברושים,32.802285,34.984364
41033,הצופים/שדרות יצחק,32.805083,34.980799
41034,מלון הר כרמל/דרך הים,32.810301,34.974772
41035,מלון הר הכרמל/אילנות,32.808355,34.974697
41036,אילנות/ככר הרקפות,32.807788,34.976745
41037,דרך הים/התמר,32.810427,34.972209
41038,דרך הים/אילנות,32.809901,34.972414
41039,התמר/אגמון,32.81226,34.971022
41040,דרך הים/הולצברג,32.816359,34.963507
41041,דרך הים/דולב,32.815546,34.966664
41042,בית חולים 10/דרך הים,32.815548,34.962338
41043,דרך הים/הרדוף,32.810997,34.970417
41044,דרך הים/דולב,32.815638,34.966883
41045,אנקווה/בר רב האי,32.817085,34.959509
41046,אנקואה/האצל,32.815088,34.960151
41047,מרסיי/בר רב האי,32.818035,34.96013
41048,בר רב האי/סעדיה הגאון,32.817993,34.963607
41049,בר רב האי/מרסיי,32.817706,34.96155
41050,בר רב האי/בודנהיימר,32.817802,34.964662
41051,סעדיה גאון/מרסיי,32.818492,34.96201
41052,מרסיי/דרך צרפת,32.819499,34.961148
41053,דרך צרפת/יציאת אירופה,32.820214,34.959306
41054,דרך צרפת/מרסיי,32.819888,34.961183
41055,דרך צרפת/כרמיה,32.820535,34.963274
41056,דרך צרפת/יציאת אירופה,32.820062,34.959793
41057,יציאת אירופה/זורס,32.82206,34.95928
41058,דרך צרפת/יציאת אירופה,32.820445,34.957969
41060,בודנהיימר/גן דורון,32.818107,34.967855
41061,בודנהיימר/סעדיה גאון,32.818501,34.965531
41062,יציאת אירופה/דרך צרפת,32.820758,34.95888
41063,מרכז הכרמל/שדרות הנשיא,32.803439,34.986942
41064,מלון דן כרמל/הנשיא,32.808933,34.985473
41065,בית חולים אלישע/וגווד,32.801692,34.990339
41066,קיש/חולדה,32.801816,34.991836
41067,קיש/האסיף,32.800468,34.994872
41068,הנשיא/איריס,32.810507,34.98377
41069,הנשיא/התשבי,32.807278,34.98669
41070,הנשיא/דפנה,32.811198,34.983397
41071,הנשיא/החורשה,32.81308,34.981493
41072,הנשיא/החורשה,32.814037,34.980406
41073,ליאון בלום/ויינגייט,32.799079,34.996606
41074,האסיף/קיש,32.800013,34.994937
41075,האסיף/ביכורים,32.798636,34.98789
41076,וינגייט/חנה סנש,32.801835,34.99388
41077,וינגייט/חנה סנש,32.802339,34.993175
41078,בית חולים בני ציון/גולומב,32.806409,34.991486
41079,תחנת כרמלית/גולומב,32.807971,34.990183
41080,מרכז הבהאים/גולומב,32.810555,34.98871
41081,התישבי,32.814436,34.976797
41082,שונמית/עובדיה,32.814875,34.97388
41083,עובדיה,32.813673,34.974097
41084,בית לחם/ישעיהו,32.81757,34.970748
41085,ויקטור הוגו/כל ישראל חברים,32.820437,34.967738
41086,סטפן וייז/אמיל זולא,32.820501,34.969284
41087,סטפן וייז/קאודרס,32.820678,34.969446
41088,אמיל זולא/ויקטור הוגו,32.821011,34.966247
41089,אמיל זולא/כל ישראל חברים,32.819927,34.967962
41090,דרך צרפת/גורס,32.821366,34.964019
41091,דרך צרפת/כרמיה,32.820309,34.962871
41092,דרך צרפת/מרסיי,32.819942,34.961482
41093,טשרניחובסקי/האקדמית גורדון,32.825277,34.969622
41095,העוגן/פייר קניג,32.825926,34.962836
41096,העוגן/יאיר שטרן,32.827509,34.963871
41097,העוגן/יאיר שטרן,32.827859,34.963788
41098,העוגן/ההגה,32.826559,34.963456
41099,התורן,32.828944,34.963455
41100,בית אל/התישבי,32.815838,34.976935
41101,שדרות הנשיא,32.814272,34.979595
41102,הציונות/הנשיא,32.816087,34.980533
41103,גן הבהאים/הציונות,32.814328,34.98564
41104,הציונות/שפרה,32.812843,34.988089
41105,הציונות/פועה,32.812239,34.990299
41106,טשרניחובסקי/פרץ חיות,32.82034,34.974334
41107,אדמונד פלג,32.823112,34.971985
41108,טשרניחובסקי/אדמונד פלג,32.824328,34.971183
41109,אדמונד פלג/טשרניחובסקי,32.823975,34.970697
41110,גן הבהאים/עבאס,32.815606,34.988744
41111,הפועל/ציפורה זייד,32.804268,34.996748
41112,הברון הירש/אלנבי,32.819361,34.983876
41113,ההגנה/יואב,32.830145,34.975488
41114,המוזיאון הימי/אלנבי,32.827809,34.973376
41115,אלנבי א,32.827082,34.97514
41116,אלנבי ב,32.825232,34.977987
41117,אלנבי ג,32.823041,34.980153
41118,אלנבי/קדושי דמשק,32.821305,34.981753
41119,אלנבי/דרור,32.821364,34.981964
41120,אלנבי א,32.823483,34.979957
41121,אלנבי ב,32.825507,34.977935
41122,אלנבי ג,32.827033,34.975622
41123,הס/מונטיפיורי,32.807819,34.991489
41124,תחנת כרמלית/גולומב,32.808323,34.989778
41125,מרפאות חוץ/וינגייט,32.804682,34.992401
41126,הס,32.80677,34.993219
41127,הס/רשי,32.805718,34.99498
41128,ארלוזורוב/הפועל,32.805581,34.997928
41129,הציונות/שדרות הנשיא,32.816355,34.980208
41130,מסדה/שמואל,32.809714,34.993343
41131,מסדה/כורש,32.811026,34.991207
41132,טבריה/הציונות,32.811696,34.990675
41133,מסדה/בלפור,32.808561,34.994809
41134,בלפור/יוסף,32.808789,34.995827
41135,מדעטק/בלפור,32.809805,34.997048
41136,עמק הזיתים/פינת בן שמן,32.811237,34.994634
41137,בר גיורא/הקנאים,32.804749,34.996264
41138,הגפן/בן גוריון,32.81701,34.98953
41139,הגפן/הפרסים,32.816351,34.990983
41140,בן יהודה/הציונות,32.812753,34.991762
41141,בן יהודה/גדעון,32.811533,34.992519
41142,הרצליה/הנביאים,32.811988,34.993619
41143,הנביאים/אחד העם,32.812166,34.994747
41144,תחנת כרמלית/הנביאים,32.812434,34.995015
41145,הגפן/הפרסים,32.81685,34.990107
41146,שדרות הציונות/א טגראי,32.817183,34.992934
41147,קופת חולים/צהל,32.827736,34.97598
41148,צהל/עמל,32.826797,34.978722
41149,צה''ל/ניל''י,32.825205,34.980713
41150,צה''ל/דרור,32.824,34.982171
41151,צהל/רוטשילד,32.823885,34.98378
41152,יואב/אבנר,32.828934,34.976894
41153,צה''ל/דרור,32.824123,34.98213
41154,צהל/גדנ''ע,32.826321,34.980034
41155,ההגנה/יואב,32.830386,34.97527
41156,אבנר/ההגנה,32.82898,34.978458
41157,בי''ח רמב''ם/העלייה השנייה,32.831695,34.985153
41158,דרך יפו/תל אביב,32.825159,34.989414
41159,העליה השניה/עפרון,32.832158,34.983022
41160,העליה השניה/לוץ,32.832091,34.980321
41161,בית ספר עליה/העליה השניה,32.832021,34.981415
41162,בן גוריון/אלנבי,32.819185,34.990101
41163,מדעטק/בלפור,32.809435,34.996176
41164,שבתאי לוי/רשפון,32.814497,34.993351
41165,חסן שוקרי/הנביאים,32.814351,34.997786
41167,בן גוריון/המגינים,32.820902,34.990958
41168,המגינים/מאיר,32.820728,34.992937
41169,המגינים/הבנקים,32.819225,34.995871
41170,המגינים/ככר ההגנה,32.818597,34.997684
41171,אבא חושי/איינשטיין,32.777431,34.999399
41172,בית בירם/אבא חושי,32.778475,34.998081
41173,אבא חושי/איינשטיין ב,32.776655,34.999676
41174,אבא חושי/טהון,32.772079,35.006123
41175,קרן היסוד/רופין,32.787875,34.998736
41176,קרן היסוד,32.789623,35.002167
41177,בית ספר בן גוריון/קרן היסוד,32.790372,34.999994
41178,חנקין/ככר אליזבט,32.787181,34.999909
41180,זלמן שניאור א,32.779105,35.004831
41181,זלמן שניאור ד,32.776661,35.006545
41182,זלמן שניאור/פיכמן,32.77584,35.008391
41183,דרך בירם/דובנוב,32.775421,35.010411
41184,בית ספר אליאנס/דרך בירם,32.773885,35.009755
41185,דרך בירם/אגוז,32.77025,35.008527
41186,דרך בירם/אינטרנציונל,32.775098,35.009924
41187,אינטרנציונל/דורות,32.779142,35.010185
41188,אבא חושי/דניה,32.769872,35.006868
41189,אבא חושי/שבדיה,32.766624,35.011775
41190,דניה/ליבריה ב,32.768676,35.002858
41191,דניה/ליבריה ד,32.767971,35.000489
41192,אנטוורפן/שלונסקי,32.768244,34.994898
41193,ברנר/חביבה רייק,32.778772,35.006785
41194,ברנר/זלמן שניאור,32.77974,35.00583
41195,אינטרנציונל/הל''ה,32.780505,35.009723
41196,דרך חנקין/בת חן,32.782348,35.00818
41197,דרך חנקין/אינטרנציונל,32.782159,35.009598
41198,חביבה רייק/אינטרנציונל,32.781614,35.008735
41199,חביבה רייק/נתיב הפנינה,32.780322,35.007985
41200,טכניון/מעונות העמים,32.776736,35.020041
41201,חנקין/קומוי,32.782206,35.013178
41202,קומוי/חנקין,32.781472,35.013665
41203,פינסקר/דורי,32.782426,35.017153
41204,מרכז ספורט/דורי,32.783368,35.019768
41205,טכניון/הנדסת חומרים,32.774777,35.025582
41206,שלום עליכם/פינסקר,32.782124,35.015936
41207,טרומפלדור/מרכז זיו,32.783433,35.01514
41208,טרומפלדור/מרכז זיו,32.78356,35.014971
41209,טרומפלדור/כיכר דוד,32.784852,35.017412
41210,חניתה/טרומפלדור,32.786016,35.017577
41211,מרכז ספורט/דורי,32.783529,35.019921
41212,גדליהו/דורי,32.783975,35.021643
41213,מרכז מסחרי/גדליהו,32.78297,35.02365
41214,מרכז מסחרי/גדליהו,32.783107,35.023606
41215,גדליהו/דורי,32.783834,35.022339
41216,הרב מימון/לייב שמעוני,32.78366,35.024233
41217,הרב מימון/לייב שימעוני,32.783731,35.024004
41218,לייב שמעוני/נחמיאס יוסף,32.784251,35.024299
41219,הגליל,32.786321,35.022415
41220,ברל/מנדלי מוכר ספרים,32.786377,35.015738
41221,בית הספר הפתוח/ברל,32.787081,35.012109
41222,ברל/פנחס ראם,32.784053,35.012998
41223,חניתה/הלל סילבר,32.78898,35.015003
41224,הלל סילבר א,32.789866,35.011976
41225,ליאון בלום,32.798677,34.998088
41226,ליאון בלום/ויינגייט,32.799383,34.996422
41227,חנה סנש,32.80036,34.999115
41228,חנה סנש/ויינגייט,32.801994,34.995197
41229,קניאל/הארי,32.797326,34.99953
41230,הלל סילבר/רטנר,32.794827,35.006534
41231,ניסנבוים/פרץ מרקיש,32.795378,35.008895
41232,יד לבנים/הלל סילבר,32.797487,35.007329
41233,יד לבנים/דב גרונר,32.796224,35.016269
41234,יד לבנים/רזיאל,32.798222,35.014265
41235,ניסינבוים/יד לבנים,32.79575,35.008456
41236,הגליל/נתיב חן,32.795377,35.011436
41237,התיכון/אשר,32.792565,35.01372
41238,התיכון/ציון,32.790048,35.016202
41239,התיכון/הברכה,32.78848,35.017592
41240,התיכון/טרומפלדור,32.786449,35.019179
41241,הגליל/נתיב חן,32.7956,35.010914
41242,הבנים/הגליל,32.794059,35.01277
41243,הרב מימון/גילבוע,32.785476,35.02089
41244,הגליל/מצפה,32.787491,35.02047
41245,הגליל/הבריכה,32.790141,35.018308
41246,הגליל/ציון,32.791868,35.016542
41247,הגליל/הבנים,32.793892,35.013933
41248,הפועל/ציפורה זייד,32.804305,34.996404
41249,קופת חולים/גאולה,32.80382,34.998943
41250,ארלוזורוב/גאולה,32.805373,34.998293
41251,ארלוזורוב/בלפור,32.807177,34.995586
41252,ארלוזורוב/פבזנר,32.804716,35.000398
41253,גאולה/רבי עקיבא,32.802606,35.000393
41254,גאולה/בן זכאי,32.803813,34.999049
41256,יד לבנים/הלל סילבר,32.796975,35.007096
41257,'יד לבנים א,32.798101,35.009336
41258,'יד לבנים ב,32.79705,35.01257
41259,יד לבנים/ערד,32.794716,35.01672
41260,בר יהודה/גשר גדוד 21,32.795491,35.022022
41261,יד לבנים/נווה יוסף,32.794395,35.018374
41262,יד לבנים/מעלות דב גרונר,32.795499,35.0155
41263,יד לבנים א,32.79734,35.012322
41264,יד לבנים ב,32.798413,35.008957
41265,רזיאל/פאר,32.800222,35.009946
41266,יד לבנים/פאר,32.79562,35.016764
41267,רזיאל/יד לבנים,32.798317,35.013451
41268,יד לבנים/הגיבורים,32.80028,35.011843
41270,פאר/וינר,32.798604,35.01131
41271,פאר/דב גרונר,32.797367,35.013545
41272,פאר/יד לבנים,32.795901,35.015776
41273,חטיבת כרמלי/מעלות יונה בוגלה,32.796084,35.018202
41274,החשמל/חטיבת כרמלי,32.797615,35.017773
41275,יד לבנים/הגיבורים,32.801056,35.010974
41276,יד לבנים/הירדן,32.799319,35.012675
41277,הגיבורים/ככר הגבורה,32.801356,35.010999
41279,מיכאל/בר כוכבא,32.80542,35.001427
41281,החלוץ/דבורה,32.810365,34.999164
41283,שמריהו לוין/אבן סינא,32.813476,34.998063
41284,מעלה השחרור/שיבת ציון,32.813099,35.000982
41285,קיבוץ גליות/בילו,32.808578,35.005563
41286,קיבוץ גלויות/דרך יד לבנים,32.804964,35.008926
41287,שיבת ציון/רובין,32.816076,34.999444
41288,דאר/מעלה השחרור,32.813784,35.000469
41289,קרית הממשלה/פל ים,32.815969,35.000997
41292,חוצות המפרץ,32.806296,35.05706
41293,האיצטדיון /החיטה,32.821158,35.056591
41294,האיצטדיון/שנקר,32.824023,35.058779
41296,ההסתדרות/צומת קרית אתא,32.811661,35.071139
41297,שדרות ההסתדרות/יצחק בן צבי,32.813396,35.072914
41298,משה שרת/שלמה לביא,32.820244,35.069272
41299,דגניה/טרומן,32.832649,35.052948
41300,דגניה/ בית אלפא,32.831404,35.054899
41301,טרומן,32.83552,35.054704
41302,בית אלפא/התקומה,32.833563,35.057105
41303,בית אלפא/הותיקים,32.8353,35.058498
41305,דגניה/זלמן ארן,32.829106,35.058925
41306,זלמן ארן/אברבנל,32.830684,35.058522
41307,האיצטדיון/דגניה,32.826685,35.060963
41308,שדרות דגניה/שדרות ורבורג,32.827542,35.061726
41309,שדרות ורבורג/אח''י אילת,32.827375,35.062729
41310,משה שרת/אח''י אילת,32.821858,35.070474
41311,אח''י אילת/יציב,32.821001,35.070448
41313,הגדוד העיברי/שיטרית,32.82543,35.069366
41314,שיטרית/משה שרת,32.824953,35.071849
41316,בית אלפא/משמר העמק,32.836747,35.059727
41317,בית אלפא,32.834214,35.057468
41318,בית אלפא/דגניה,32.832062,35.055898
41319,זלמן ארן/משמר העמק,32.835534,35.061849
41320,דואר/זלמן ארן,32.833572,35.060207
41322,אחי אילת/צומת קרית חיים,32.81769,35.076831
41323,ביטוח לאומי/אחי אילת,32.818735,35.074844
41325,דגניה/בוסל,32.828674,35.059973
41326,דגניה/ורבורג,32.827905,35.060752
41328,זלמן ארן/דגניה,32.830237,35.05796
41329,דואר/זלמן ארן,32.832988,35.059908
41330,זלמן ארן/הותיקים,32.834662,35.061216
41331,וורבורג/אברבנאל,32.828551,35.06269
41332,וורבורג/יחיעם,32.831127,35.064098
41333,הים התיכון/שפירא,32.836273,35.067643
41334,אלכסנדר זייד,32.819494,35.061674
41335,בן צבי/משה שרת,32.818438,35.068666
41337,מבצע עזרא / ד''ר דן ויליאם גאוי,32.434008,34.884458
41340,קארו/בר יוחאי,32.789352,35.08566
41341,שבזי/צלאח,32.789591,35.086183
41342,שבזי/רשי,32.789588,35.088831
41343,שבזי/רשי,32.789678,35.088044
41344,טשרניחובסקי/לילנבלום,32.796558,35.096671
41345,כנרת/הדקלים,32.796548,35.101314
41346,העצמאות/המגינים,32.809498,35.104629
41347,סירקין/רמז,32.808523,35.112558
41348,חנקין/בורוכוב,32.810137,35.111514
41349,חנקין/בורוכוב,32.809891,35.111614
41350,הרצל/חנקין,32.811648,35.110927
41351,חנקין/רופין,32.812035,35.108855
41352,חנקין/סוקולוב,32.812282,35.105661
41353,נורדאו/חנקין,32.812083,35.109638
41355,מולר/איינשטיין,32.812832,35.111778
41356,איינשטיין/הצנחנים,32.812757,35.11279
41357,איינשטיין/סמטת יאיר,32.813094,35.11353
41358,יוספטל/סירקין,32.807734,35.117012
41360,זבוטינסקי,32.808138,35.119484
41361,זבוטינסקי/הפלמח,32.808309,35.121958
41362,שמואל עזר,32.812894,35.120563
41363,שמואל עזר/טביב,32.8118,35.121192
41364,עשת/עזר,32.814526,35.119354
41365,טביב/אסף שמחוני,32.808826,35.118298
41366,עשת/טביב,32.811769,35.121678
41367,טביב/אסף שמחוני,32.808979,35.118164
41368,עשת/שמואל עזר,32.814804,35.118914
41369,בן יוסף/זמנהוף,32.815624,35.115575
41370,ז'בוטינסקי/יבניאלי,32.808818,35.120924
41371,זבוטינסקי/אסף שמחוני,32.808194,35.119179
41372,אנילביץ/יצחק שדה,32.808479,35.123888
41373,אנילביץ/יצחק שדה,32.808793,35.123983
41374,בן עמי/מימון,32.810094,35.12524
41375,בן עמי,32.810096,35.12834
41376,יצחק שדה/הארי השואג,32.812062,35.126649
41377,יצחק שדה/קיש,32.812925,35.124997
41378,יצחק שדה,32.811193,35.12355
41379,הרצוג/יצחק שדה,32.81131,35.129221
41380,בן עמי/הרצוג,32.808889,35.129126
41381,בן עמי/משאש,32.81106,35.127029
41382,מלאכי/יחזקאל,32.477785,34.958002
41383,גושן/וייצמן,32.832662,35.073509
41384,גושן/ככר הגיבורים,32.828696,35.074655
41385,גן העצמאות/זבוטינסקי,32.835733,35.073118
41386,רכבת מוצקין/זבוטינסקי,32.834287,35.072111
41387,חשמונאים/טרומפלדור,32.837235,35.075702
41388,חשמונאים/וייצמן,32.83433,35.076719
41389,חשמונאים/שפרינצ'ק,32.835204,35.076509
41390,וייצמן/הרצוג,32.834391,35.079397
41391,וייצמן/בית ספר וייצמן,32.834612,35.078815
41392,ורד/ספיר,32.83675,35.081502
41393,אשכול/ורד,32.838729,35.080482
41394,חשמונאים/אלון,32.84226,35.079161
41395,חשמונאים/בן גוריון,32.842305,35.078937
41396,ורד/יוספטל,32.836691,35.081161
41397,אשכול/ספיר,32.838633,35.080892
41398,אשכול/חשמונאים,32.839462,35.079206
41399,קדיש לוז/חזני,32.839935,35.086069
41400,קדיש לוז,32.844699,35.08911
41401,קדיש לוז,32.843928,35.088503
41402,גושן/דבורה,32.824443,35.078591
41403,גושן/מכבי,32.826913,35.075507
41404,גושן/ככר הגיבורים,32.829992,35.074643
41405,גושן/וייצמן,32.831772,35.074116
41406,יששכר/וייצמן,32.833351,35.073084
41408,וייצמן/תבור,32.817156,35.079556
41409,שדרות וייצמן/יגור,32.820814,35.081323
41411,קופת חולים/ויצמן,32.819553,35.080837
41412,וייצמן/העמקים,32.817309,35.079538
41413,הנרייטה סולד/כינרת,32.826034,35.082953
41414,הגפן/קרן היסוד,32.829441,35.084051
41415,קרן היסוד/הגפן,32.829649,35.084644
41416,קרן היסוד/הברושים,32.832312,35.086635
41417,קרן היסוד/אלונים,32.833881,35.087721
41418,קרן היסוד/התאנים,32.83654,35.089239
41419,קרן היסוד/דן,32.838985,35.090462
41420,קרן היסוד/רחל,32.836163,35.088914
41421,קרן היסוד/שבטי ישראל,32.840014,35.09117
41422,שבטי ישראל/זבולון,32.84014,35.088994
41423,דרך עכו/אוסישקין,32.829155,35.080141
41424,התל/התמר,32.849639,35.09438
41425,התל/חיים,32.848842,35.096735
41426,התל,32.849163,35.096277
41427,התל/דרך עכו,32.849896,35.09409
41428,חיים/סיגליות,32.850647,35.097989
41429,זבוטינסקי/שי עגנון,32.856373,35.099115
41430,שי עגנון/שדרות חן,32.860174,35.100877
41431,שי עגנון/י.ל.פרץ,32.859347,35.100514
41432,שדרות חן/יוסף לוי,32.861018,35.096628
41433,שדרות חן/בורלא,32.860668,35.098712
41434,חיים/הרצל,32.853283,35.098208
41435,חיים/הרצל,32.853575,35.098345
41437,ירושלים/משה שרת,32.840708,35.06814
41439,משה שרת/מרכז ניצן,32.842937,35.067319
41440,משה שרת/מרכז ניצן,32.842812,35.067131
41441,הנרייטה סולד/ליהמן,32.845071,35.070598
41442,צה''ל/בן צבי,32.84547,35.067973
41443,וייצמן/המעפילים,32.851802,35.06785
41444,וייצמן/שבטי ישראל,32.849576,35.073688
41445,וייצמן/השופטים,32.849718,35.073758
41446,וייצמן /גורדון,32.851006,35.070526
41447,ההסתדרות/פלמח,32.850718,35.075507
41448,ההסתדרות/וייצמן,32.850777,35.075424
41450,תבור/הגליל,32.853508,35.080335
41451,מבצע יונתן/עין הדבש,32.459266,34.900341
41452,עציון/חברון,32.468301,34.963246
41453,עציון/חברון,32.469471,34.962739
41454,צומת צרופה,32.647133,34.958825
41455,צומת מגדים,32.727005,34.966304
41456,מגדים צפון/נחל ספונים,32.738683,34.96622
41457,מגדים דרום/נחל ספונים,32.737043,34.966128
41458,מסעף החותרים,32.753324,34.962412
41459,דרך הים/מחנה מעפילים,32.710796,34.948341
41461,שכונת ואדי אל פאש,32.695889,35.050887
41462,צומת סומך,32.807002,35.14568
41464,צומת סומך,32.805842,35.146076
41466,אלאונטוש,32.719206,35.063961
41467,כיכר המזרקה,32.723877,35.058598
41471,דרך ישראל בר יהודה,32.784485,35.031358
41476,קניון לב המפרץ/ההסתדרות,32.793209,35.038917
41477,מרכז מסחרי חוצות המפרץ,32.805789,35.056577
41478,דרך עכו/המייסדים,32.845136,35.0903
41479,דרך עכו/צומת צבר,32.835869,35.084365
41480,קריון/ד. עכו חיפה,32.842679,35.089138
41482,צומת הקריון,32.84667,35.092454
41483,דרך עכו/הגפן,32.829962,35.080975
41484,דרך עכו/צומת צבר,32.83619,35.084962
41486,הנדסת חומרים/שדרות דוד רוז,32.774999,35.025515
41487,טכניון הנדסת מכונות/שדרות דוד רוז,32.775003,35.02284
41503,דרך עכו חיפה/רפא''ל,32.865022,35.095138
41504,דרך עכו חיפה/רפא''ל,32.866236,35.095565
41507,מעונות הסטודנטים נווה ריפקין,32.77711,35.019892
41508,אוניברסיטת חיפה/בניין אשכול ב,32.763136,35.016964
41511,אוניברסיטה/מגדל אשכול,32.762012,35.018366
41514,קריית הממשלה/העצמאות,32.816241,35.00317
41517,יצחק רבין/אל זהור,32.733802,35.152866
41520,הכלניות/מדרשים,32.753698,35.099716
41521,הכלניות,32.753601,35.10209
41522,מחלף יגור,32.754433,35.072585
41523,הרימונים/האלונים,32.751558,35.097297
41524,מחלף העמקים/ג'למה,32.723751,35.099955
41525,צ'ק פוסט,32.788231,35.028374
41526,הרימונים/האורנים,32.750397,35.097992
41529,דרך שרה/דרך הרב משקובסקי,32.74916,35.100731
41531,דרך יוסף פלץ/הרב קוק,32.746629,35.103929
41532,ההסתדרות/צומת הקריות,32.789389,35.030298
41533,ת. מרכזית המפרץ/רציפים עירוני,32.792678,35.034779
41534,הרב שמעונוביץ/בית כנסת חזקיה,32.747125,35.098727
41535,הגפן/האלונים,32.749346,35.098047
41536,מכללת אורנים,32.710793,35.109251
41537,מכללת אורנים,32.710787,35.110211
41539,המגינים/בן גוריון,32.821417,34.990833
41540,תחנת רכבת חיפה מרכז השמונה,32.820918,34.99685
41543,הגפן/האלונים,32.749254,35.098135
41544,הגפן/הרב עוזיאל,32.748539,35.099492
41545,הרימונים/האלונים,32.752071,35.097605
41546,גיורא יוספטל/ירושלים,32.754216,34.969823
41547,רמבם/השחרור,32.764093,34.974758
41548,מרדכי/סמטת האחים פיש,32.705008,35.120914
41549,מרדכי / גולומוב,32.702944,35.12177
41550,צומת קרית טבעון/האלונים,32.71248,35.125304
41551,גולומב/כצנלסון,32.704785,35.122424
41552,גולומוב / כצנלסון,32.706131,35.122594
41555,רות/ברוך,32.794718,34.977188
41556,בר רב האי,32.817215,34.967436
41557,בית חולים אלישע/ווגווד,32.801774,34.990438
41558,יפה נוף/גדרה,32.805049,34.989501
41559,קיש/האסיף,32.80069,34.994715
41560,קיש/הנרייטה סאלד,32.801436,34.993051
41561,ויקטור הוגו/אמיל זולא,32.82149,34.966655
41562,דרך צרפת/דרייפוס,32.821927,34.964872
41563,אלנבי/הברון הירש,32.819799,34.984388
41564,אלנבי/בן גוריון,32.818848,34.987826
41565,ארלוזורוב/בלפור,32.807753,34.994034
41566,הציונות/הילל,32.81289,34.988512
41567,גן הבהאים/הציונות,32.814489,34.9857
41568,הרצליה/הציונות,32.814008,34.9922
41569,העליה השניה/הכ''ג,32.832242,34.977363
41570,העליה השניה/אלישע,32.831875,34.97453
41571,צומת דולפין,32.827761,34.984666
41572,אלנבי/בן גוריון,32.818972,34.988102
41573,אלנבי/רוטשילד,32.819972,34.984439
41574,שבתאי לוי/פרץ,32.813298,34.994313
41575,רופין/קניאל,32.799437,35.002022
41576,גאולה/רבי עקיבא,32.801831,35.001544
41577,מיכאל/בר כוכבא,32.804443,35.002254
41579,גאזל/סלמן,32.801591,35.020323
41580,אופיר/הרץ,32.807336,35.015689
41581,אופיר/העתיד,32.807294,35.015431
41585,מכבי אש/חלץ,32.800097,35.021714
41586,גאזל/סלמן,32.802033,35.020018
41587,טובים/העתיד,32.809102,35.014974
41588,טובים/העתיד,32.809022,35.015073
41589,טובים/מקורות,32.808867,35.019332
41590,נמל קישון,32.809319,35.024371
41593,יוליוס סימון/פרנץ לוי,32.816658,35.04236
41595,יוליוס סימון/קצנשטיין,32.81737,35.048102
41596,וורבורג/התקומה,32.831501,35.063627
41597,השיירה/בן צבי,32.817583,35.071304
41598,קארו/צלאח,32.788022,35.085761
41599,רמז/ארלוזורוב,32.805504,35.109614
41600,רמז/סירקין,32.807778,35.112204
41601,רמז/הציונות,32.805787,35.109703
41602,איינשטיין/אסף שמחוני,32.813598,35.115717
41603,איינשטיין/מרכז שביט,32.813649,35.115481
41604,גוש עציון/הרצוג,32.808515,35.128942
41605,גוש עציון/מימון,32.80756,35.127672
41606,קדיש לוז/יוני נתניהו,32.842326,35.087608
41607,צומת מוצקין,32.823742,35.079421
41608,קרן היסוד/אלונים,32.833984,35.087661
41609,דרך עכו חיפה/ציפורן,32.850522,35.093666
41610,חיים/זבוטינסקי,32.855967,35.098423
41611,בן צבי/נמיר,32.844345,35.066421
41612,צהל/יוספטל,32.84694,35.065016
41613,יוספטל/צה''ל,32.848059,35.064406
41614,בן צבי/צהל,32.845411,35.066931
41615,צהל/שפרינצק,32.846173,35.067024
41616,ליהמן/יוספטל,32.849321,35.065727
41617,ליהמן/שפרינצק,32.847996,35.068647
41618,ליהמן/הנרייטה סולד,32.846603,35.071419
41619,וייצמן/סוקולוב,32.850638,35.071067
41620,גלעד/תבור,32.855796,35.081812
41621,צומת מגדים,32.725875,34.966216
41622,צומת סיטרין,32.718374,34.968229
41623,בית ספר קרית עמל/קק''ל,32.710766,35.121684
41624,קק''ל/רבין,32.711441,35.123625
41625,בית ספר קרית עמל/קק''ל,32.710801,35.121929
41627,ליאון בלום/חנה סנש,32.798866,34.999772
41628,עבאס/מדרגות אל גזאלי,32.816581,34.986236
41629,לאון בלום/חנה סנש,32.799527,35.000669
41630,ארלוזורוב/בר גיורא,32.808415,34.992432
41631,צומת קרית חיים,32.817155,35.076678
41632,דרך עכו/צומת עין אפק,32.849634,35.093082
41633,דרך עכו/צור שלום,32.855724,35.094325
41634,יוספטל/ליהמן,32.850002,35.065563
41635,יוספטל/וייצמן,32.851927,35.06663
41637,בי''ס אורט,32.706834,35.124984
41639,בריכת שחייה,32.710503,35.126043
41640,אלונים/הרימונים,32.715192,35.124825
41641,גורדון/שד. רוטשילד,32.435286,34.920405
41642,ביאליק/מיכאל חזני,32.432774,34.916664
41643,צומת סיטרין,32.717596,34.968597
41644,הלל סילבר/ניסנבוים,32.795431,35.007092
41645,הלל סילבר א,32.793092,35.007676
41646,בית אבא חושי,32.791661,35.010021
41647,הלל סילבר ג,32.79001,35.011613
41648,קארו/צאלח,32.787346,35.085665
41649,יוסף קארו,32.7868,35.086118
41650,רשי/צלאח,32.787555,35.088392
41653,יוספטל/איינשטיין,32.812876,35.114236
41654,צור שלום,32.854569,35.093877
41655,קדימה/רענן,32.801959,34.978237
41656,קדימה,32.801524,34.979581
41657,קדימה/הלילך,32.801513,34.979851
41658,קדימה/רענן,32.802083,34.978125
41659,וולפסון/מוריה,32.800612,34.983391
41660,דרך הים/הסנה,32.811343,34.968285
41661,דרך הים/התמר,32.813236,34.966901
41662,טשרניחובסקי/בית לחם,32.817254,34.978233
41663,רבי עקיבא/ליאון בלום,32.80361,34.99699
41664,רבי עקיבא/מדרגות ביתר,32.802774,34.998528
41665,עצמאות/בית וגן,32.799637,35.103066
41666,הגפן/חניתה,32.830421,35.082151
41667,חטיבת גולני/מחלף חירם,32.807408,35.00809
41668,וורבורג/התנאים,32.8346,35.065514
41669,ירושלים/רוברט סולד,32.834809,35.065012
41670,האורנים/הרימונים,32.751157,35.09821
41671,תחנת כרמלית/מרכז הכרמל,32.804567,34.987833
41672,שפרינצק/כלניות,32.7967,35.08987
41673,שפרינצק/גד מנלה,32.794051,35.089868
41674,שפרינצק/קישון,32.792027,35.089877
41675,בן צבי/זלמן שניאור,32.80012,35.092384
41676,שפרינצק/קישון,32.792482,35.089979
41677,שפרינצק/כלניות,32.795975,35.089979
41678,שפרינצק/רזיאל,32.797538,35.089961
41680,צומת איטונג,32.482248,34.972655
41683,בית עלמין,32.479576,35.005226
41684,צומת עין עירון,32.480039,35.008078
41685,קדמה/כביש 6504,32.478336,34.998689
41687,אלונים/בריכה,32.719368,35.129324
41689,מוריה/קרית ספר,32.791033,34.986574
41690,אהוד/שער הגיא,32.792616,34.989934
41691,ארלוזורוב/הס,32.808579,34.991291
41692,ארלוזורוב/בלפור,32.807488,34.994399
41694,צומת אולגה,32.438234,34.89157
41695,גולומב/ראובן,32.810024,34.99006
41697,המגינים/עין דור,32.820133,34.994304
41698,שוק תלפיות/ארלוזורוב,32.807448,35.000565
41699,יותם/אהוד,32.792564,34.987496
41700,חורי/ואדי,32.817528,34.994114
41701,רופין/ככר אליזבט,32.787876,35.000213
41702,הציונות/הרצליה,32.814039,34.991175
41703,בן גוריון/אלנבי,32.818475,34.989446
41704,רופין/קניאל,32.798871,35.001669
41705,צומת בנימינה,32.516826,34.929888
41707,רחל/רות,32.796283,34.978991
41708,קדימה/שביל המערות,32.800845,34.981394
41709,הרצל/הלל יפה,32.810287,34.998423
41711,צומת נווה חיים,32.450617,34.908796
41712,ז'בוטינסקי/המגינים,32.83727,35.074202
41713,גושן/פ''ז,32.825825,35.075613
41714,דרך עכו/צומת ביאליק,32.825021,35.079888
41715,וייצמן/ירושלים,32.823534,35.081862
41716,וייצמן/ירושלים עיריה,32.823554,35.081659
41717,קרן היסוד/בן גוריון,32.831876,35.086201
41718,חיים/שושנים,32.850725,35.09789
41719,הנריטה סולד/ליהמן,32.846249,35.071468
41720,האיצטדיון/שנקר,32.823098,35.05803
41722,ענתות/זאב זבוטינסקי,32.818188,34.974158
41725,שרת 1,32.705015,35.125899
41726,שרת / כצנלסון,32.706495,35.126853
41727,קדיש לוז/דקר,32.848007,35.091064
41728,הביטחון/בר יהודה,32.776428,35.039758
41729,אלאונטוש,32.719116,35.063873
41731,מרכז מסחרי,32.698631,35.056154
41732,שכונת ואדי אל פאש,32.695576,35.049809
41733,צומת דמון,32.734311,35.040129
41734,יציאת אירופה/זורס,32.822868,34.959365
41735,טשרניחובסקי,32.823084,34.973739
41736,אדמונד פלג,32.822661,34.972753
41737,קופ''ח כללית,32.396669,35.042081
41738,צומת זיתא,32.388631,35.04357
41739,צומת זיתא,32.389867,35.044131
41740,צומת ג'ת,32.394284,35.045962
41742,כביש 7223/נחל קדומים,32.750597,35.087792
41743,מועצה מקומית/האורנים,32.749585,35.100648
41744,האורנים,32.751423,35.099827
41745,גיבורי התהילה/עבודת ישראל,32.749896,35.094751
41746,כצנלסון/ירושלים,32.80293,35.107315
41747,כצנלסון/ירושלים,32.802714,35.107686
41748,פינסקר/שלום עליכם,32.783074,35.01761
41749,בית כנסת עץ חיים/הרב קוק,32.746978,35.09968
41750,אבנר/יואב,32.827968,34.978137
41751,חנקין/גוטל לוין,32.784122,35.003877
41752,אצטדיון סמי עופר/כביש 4,32.782421,34.963053
41754,בית עלמין/שער ברוש,32.802746,34.966698
41755,בית עלמין/שער תמר,32.798602,34.967039
41756,דרך הים,32.816087,34.964876
41757,עין הים,32.825992,34.959919
41758,עין הים,32.826537,34.960185
41759,יואב/צהל,32.829263,34.974494
41761,כבירים/איתנים,32.803312,34.975764
41762,כבירים/עמיקם,32.804091,34.974261
41763,כבירים/עודה נדה,32.804901,34.973622
41764,הכלניות/בני תורה,32.755131,35.103314
41769,הרברט סמואל/תרנ''א,32.435471,34.923668
41770,התאנים/הר חורשן,32.417739,34.951132
41772,ניצנים/פינסקי,32.804984,34.977793
41773,פינסקי/כלניות,32.80333,34.979124
41774,פינסקי/הורדים,32.802685,34.980566
41776,הרצל/סוקולוב,32.807443,35.001081
41778,טובים/סלמן,32.809209,35.020237
41779,מסעף אושה,32.794084,35.112778
41780,מסעף כפר המכבי,32.792545,35.117681
41781,העצמאות/מורדי הגטאות,32.804168,35.103924
41782,העצמאות/הילל,32.802423,35.103737
41784,מסעף כפר גלים,32.765262,34.96209
41785,שפרינצק,32.822204,34.956488
41786,שדרות מוריה/הברושים,32.801906,34.983813
41787,הגיבורים/שמידט,32.439389,34.923829
41788,אחד העם/שד. רוטשילד,32.434276,34.920598
41790,דרך עכו/שדרות חן,32.861697,35.095013
41791,דרך עכו/שדרות חן,32.859993,35.094512
41792,מסעף נחל נעמן,32.873256,35.096147
41794,דרך הבנים/דרך משמרות,32.476904,34.981335
41796,טשרניחובסקי/ישעיהו,32.819901,34.975053
41797,העצמאות/הנביאים,32.801427,35.103659
41798,הדסים/רקפת,32.464217,34.978641
41799,הדקלים/תמר,32.467719,34.977669
41800,מקווה,32.483101,35.003734
41801,מזכירות,32.481835,35.001569
41802,צומת עין עירון,32.480207,35.00824
41804,צומת זבולון,32.767894,35.101237
41805,שבטי ישראל/זבולון,32.839733,35.090183
41806,דגניה/חוף קרית חיים,32.833399,35.052723
41807,הרצל/העצמאות,32.76197,34.972636
41809,הקונגרס/קרן קיימת לישראל,32.442651,34.88408
41810,הקונגרס/הנגב,32.440953,34.884216
41811,אהרונוביץ'/אוסקר כהן,32.448305,34.907248
41812,בן יהודה/השלום,32.810597,34.992973
41813,בן יהודה/עמק הזיתים,32.809774,34.994413
41814,אנטוורפן/הולנד,32.766877,34.992954
41815,הולנד/לאה גולדברג א,32.76556,34.99005
41816,שופמן/הולנד,32.765551,34.985405
41817,שלונסקי/לנ''י,32.766593,34.987517
41818,אנטוורפן/איטליה,32.767703,34.996933
41819,חוות אהרונסון,32.71073,34.963483
41820,כלא 6,32.710547,34.96967
41821,צומת אורן צפון/כלא 6,32.714714,34.970488
41822,מחנה מעפילים/דרך הים,32.710496,34.948527
41824,כיכר הציונות,32.711667,35.124503
41825,בן יוסף/צפניה,32.816147,35.116356
41826,טשרניחובסקי/היובל,32.817008,34.978966
41828,יוסף ויתקין/ירושלים,32.442761,34.928326
41829,צהל/גן ציבורי,32.773311,35.032396
41830,עמוס/סיני,32.775451,35.03118
41831,צה''ל/ציון,32.772392,35.035677
41832,צהל/ציון,32.772296,35.035921
41833,דרך הטכניון/עמוס,32.776722,35.03132
41836,המלך שלמה/המלך חזקיהו,32.808936,34.96185
41837,המלך שלמה/המלך שאול א,32.806574,34.963105
41840,אכסנית נוער/מגורשי ספרד,32.794719,34.967165
41842,החשמל,32.796691,35.019007
41844,מועצה מקומית/הרימונים,32.749377,35.100111
41845,הרותם/הליבנה,32.814281,34.957194
41846,הרותם/בן צור,32.817351,34.956328
41847,בן צור/אנקאוה,32.818554,34.957422
41848,המלך דוד/המלך עוזיהו,32.810059,34.958979
41849,המלך דוד/המלך אסא,32.809219,34.959255
41850,בית עלמין/שער ברוש,32.802557,34.966958
41851,המלך דוד/המלך שאול,32.806674,34.960237
41852,המלך דוד/המלך אסא,32.808714,34.959527
41853,בן צור/סעדיה פז,32.818729,34.957573
41854,הרותם/האלה,32.816422,34.956132
41855,הרותם/האשחר,32.814537,34.956832
41856,שמשון/יוכבד,32.796216,34.990191
41857,שמשון/נעמ''ת,32.796124,34.991113
41858,שמשון/האסיף,32.796191,34.988803
41859,השקמה/האורן,32.785546,34.995432
41860,חשמונאים/שבי ציון,32.473604,34.959018
41861,מצדה/גוש חלב,32.465245,34.961055
41862,בית עלמין/שער תמר,32.798878,34.967185
41863,המלך שלמה/המלך שאול,32.806077,34.963647
41864,יציאת אירופה/דרך צרפת,32.819687,34.9588
41866,הגפן/נוף כרמל,32.79811,35.106532
41868,בן עמי/אריה רגב,32.810977,35.126593
41869,אנקואה/בר רב האי,32.817744,34.959336
41870,בן גוריון/ורד,32.838285,35.083144
41871,בן גוריון/דקר,32.838372,35.083345
41872,קדיש לוז/צה''ל,32.849165,35.091831
41873,שדרות חן/הנס מולר,32.860863,35.099385
41874,קדיש לוז/קלימנוב,32.841506,35.086947
41875,קדיש לוז/חזני,32.839637,35.085729
41876,מנזר,32.726854,35.055673
41877,שכונת חיילים משוחררים,32.723119,35.058948
41878,בנק הפועלים,32.69468,35.048426
41879,כביש ראשי 2,32.709237,35.067327
41881,בית עלמין צבאי,32.726059,35.056651
41882,מצפור איזן,32.733384,35.046589
41883,כביש ראשי 2,32.709061,35.06721
41884,מרכז דאליית אל כרמל,32.693534,35.046956
41886,חנקין/קומוי,32.782016,35.013242
41887,רבמד/בן גוריון,32.840156,35.079751
41888,וורבורג/הים התיכון,32.837083,35.066752
41889,וורבורג/שטרן,32.840565,35.068611
41890,כביש 4/שדרות מנחם בגין,32.748955,34.963971
41891,כביש 4/שדרות מנחם בגין,32.749747,34.963781
41892,הגליל/הבנים,32.794061,35.013536
41893,הגליל/ציון,32.792283,35.015937
41894,בי''ס שיפמן,32.75909,34.980923
41895,מאפו/חורב,32.787227,34.984538
41896,פרץ/הברוש,32.771799,35.044224
41897,ליאון בלום,32.800915,35.000116
41898,דניה/אבא חושי,32.769386,35.00653
41899,הרב שמעונוביץ/הרב קוק,32.745909,35.099104
41901,אנקואה/בן צור,32.81841,34.958659
41903,צה''ל/חבצלת,32.772851,35.032387
41904,מבצע יונתן,32.792901,34.991212
41905,הראל/פלמח,32.789266,34.992125
41906,יזרעאל/חנה סנש,32.709516,35.128877
41907,'יזרעאל א,32.70696,35.128933
41908,יזרעאל/השומרים,32.705065,35.130965
41909,שיכון האלה/בית שערים,32.704548,35.13212
41910,השומרים/יזרעאל,32.706564,35.132752
41912,יוספטל/גוש חלב,32.855484,35.094846
41913,יוספטל/ברנר,32.858837,35.095358
41914,יוספטל/מימון,32.858647,35.09516
41915,יוספטל/גוש חלב,32.855529,35.094745
41916,אלנבי/מאיר,32.818784,34.991136
41917,המחתרות,32.686256,34.939739
41918,שדרות חן/יוספטל,32.860794,35.096217
41919,המייסדים/הסלע,32.69182,34.942002
41920,המייסדים/דרך הים,32.69231,34.945032
41921,האלון/דרך הים,32.681523,34.942303
41922,הלוחמים,32.683661,34.942708
41923,החרוב/הסלע,32.688841,34.941576
41924,הנרייטה סאלד/מעלה אבשלום,32.689519,35.11049
41925,הזית/הדקל,32.684738,34.94081
41926,מזרח/נחל קדומים,32.706199,35.104023
41928,מרכז קהילתי/הנרייטה סאלד,32.690539,35.109533
41929,מרכז קהילתי/הנרייטה סאלד,32.690813,35.109465
41930,'הרצל ג,32.695596,35.107729
41931,נחל קדומים/הכרכום,32.699416,35.106171
41935,קניון חיפה/פלימן,32.790214,34.962988
41936,פרויד,32.77939,34.98825
41939,המלך שאול/המלך דוד,32.806596,34.960807
41941,דרך הים/הצופים,32.805558,34.981773
41945,ביס טכני ח''א/שער חיפה,32.805826,35.03987
41946,כיכר רמת טבעון,32.731018,35.144911
41948,מתנ''ס/ז'בוטינסקי,32.760176,34.969297
41949,מרכז לבריאות הנפש טירת כרמל,32.750932,34.974635
41950,דקר/מרטין בובר,32.784136,35.000108
41951,הצוללת דקר/זלמן שזר,32.784747,34.99931
41952,הצוללת דקר/פיקא,32.786543,34.9963
41953,הצוללת דקר/זלמן שזר,32.784513,34.999038
41954,מרטין בובר/הצוללת דקר,32.783818,34.998866
41956,נעורים/קנאים,32.469089,34.992202
41957,אורן/מרטין בובר,32.783574,34.996843
41959,הכלניות/ז'בוטינסקי,32.760075,34.966963
41960,קופת חולים כללית/אצ''ל,32.761838,34.967558
41961,גן נדיר/אצ''ל,32.763734,34.968007
41962,גן נדיר/אצ''ל,32.763944,34.967894
41963,אצ''ל/הרצל,32.765726,34.96932
41964,קופת חולים כללית/אצ''ל,32.761725,34.967446
41965,הרצל/ביאליק,32.766475,34.969528
41966,הגליל,32.815067,35.07626
41967,דרור /בית ספר אורט אפק,32.846613,35.094509
41968,רופין/שמחה גולן,32.790837,35.0034
41969,גרנד קניון/רופין,32.789683,35.003258
41970,גיורא יוספטל/ויצמן,32.755964,34.969864
41971,יצחק בן צבי/הגיתית,32.429717,34.915522
41972,יצחק שדה,32.811518,35.123669
41973,יצחק שדה/קיש,32.812225,35.125919
41974,הרצוג/מינץ,32.810698,35.129402
41976,נעורים/קנאים,32.469271,34.992633
41977,גן ציבורי/האורן,32.771012,35.041002
41978,האורן,32.772642,35.040229
41979,האורן/הברוש,32.773636,35.039769
41980,ששת הימים/האורן,32.770258,35.042797
41982,צה''ל/האורן,32.773761,35.038171
41983,קאודרס/אליהו חכים,32.821344,34.971622
41984,קאודרס/סטפן וייז,32.82141,34.971468
41985,הראל/פטל,32.789652,34.992141
41986,בית ספר אופקים/דרך הים,32.806817,34.980077
41987,מבצע יונתן,32.793034,34.991247
41988,אבא חושי/דר ארתור בירם,32.770739,35.007125
41989,ווטסון/חורב,32.777924,34.9936
41990,ווטסון/סורוקה,32.776677,34.993899
41991,אסיף/הטנא,32.799532,34.989546
41992,יד לבנים/ערד,32.794214,35.018089
41994,בן צבי /חטיבת דגן,32.820755,35.062409
41995,דקר/בית ספר בן גוריון,32.840684,35.083358
41996,ספורטן/צביה ויצחק,32.794318,34.965555
41997,אכסנית הנוער/מגורשי ספרד,32.794642,34.967062
41998,ספורטן/צביה ויצחק,32.794407,34.965531
41999,ערד/סובה,32.790416,35.022195
42000,ערד/תענך,32.792509,35.020667
42001,בי''ח רמב''ם/העלייה השנייה,32.831654,34.984594
42003,ד'ישראלי/בלוך,32.789084,34.989869
42004,בית ספר נילי,32.572153,34.948002
42005,דרך שרה/העליה,32.567602,34.95757
42006,אצל/המלך שלמה,32.814192,34.961612
42008,דרך הים/תמירון,32.695509,34.945816
42009,הנדיב/המייסדים,32.574198,34.953046
42010,ההגנה 14,32.814318,35.07802
42011,קופת חולים/ליהמן,32.848107,35.068636
42012,אסף שמחוני/טביב,32.809663,35.117067
42013,אסף שמחוני/הרב עוזיאל,32.809787,35.117131
42014,העצמאות/בית וגן,32.79879,35.102497
42015,רכבל/העלייה השנייה,32.831159,34.970941
42016,הנשיא/מרכז פנורמה,32.807383,34.986857
42018,יצחק גרינבוים/הכנסת,32.442953,34.90382
42019,ביילינסון/הצנחנים,32.444962,34.906337
42020,ביילינסון/הצנחנים,32.4448,34.906253
42022,ולנברג/פרויד,32.77887,34.98622
42023,חבצלת/צה''ל,32.772218,35.03276
42024,היסמין/הורדים,32.772151,35.037615
42025,הזית/היסמין,32.77186,35.039662
42026,הזית/צה''ל,32.773138,35.03821
42027,הזית/צה''ל,32.772888,35.038359
42029,חבצלת/הורדים,32.772076,35.036855
42030,חבצלת/צה''ל,32.771938,35.034007
42031,מייסר/מרכז,32.444075,35.042649
42032,צומת מייסר/כניסה,32.441099,35.04354
42035,צומת משמר הגבול,32.480781,35.023762
42036,הגדעונים/הנוטרים,32.565759,34.945912
42037,הכובשים/הגדעונים,32.566481,34.94521
42038,ספיר/משה שרת,32.846161,35.061948
42039,משה שרת/שפירא,32.844432,35.063835
42040,ספיר/משה שרת,32.846288,35.061798
42041,צהל/יוספטל,32.847839,35.063662
42042,מתנ''ס/משה שרת,32.844177,35.064802
42043,ירושלים/צה''ל,32.843272,35.070481
42044,שדרות ירושלים/אביר יעקב,32.845835,35.072882
42045,ירושלים,32.847253,35.074314
42046,ירושלים/יגאל אלון,32.849568,35.076716
42049,המסילה/גאולה,32.47511,34.951681
42051,האירוס/הרקפת,32.431817,34.912882
42052,ששת הימים/הרברט סמואל,32.4384,34.915478
42053,חורב/אידר,32.781617,34.989745
42054,סורוקה/צבי בן יעקב,32.774741,34.992734
42055,'אידר א,32.776694,34.990537
42056,אידר/שימקין,32.778322,34.99125
42057,בית אבות כרמל/אידר,32.780019,34.990639
42061,נשר/אנקור,32.463249,34.949982
42063,מועצה מקומית,32.720409,35.062181
42064,ביטוח לאומי,32.707092,35.066915
42065,כביש ראשי 3,32.713986,35.068977
42066,שכונת הבדואים,32.731692,35.050023
42067,כביש ראשי 3,32.714077,35.069
42069,ואדי אלפאש,32.69713,35.054498
42072,שבדיה ד,32.767107,35.00736
42075,בי''ס בית יעקב,32.431871,34.92372
42077,רוברט סולד/אהבת ציון,32.836528,35.061977
42078,רש''י/חטיבת הראל,32.431006,34.913913
42079,ירושלים/אביר יעקב,32.847139,35.073466
42080,החרוב/הזית,32.686257,34.940768
42081,מרכז קהילתי/רמת ספיר,32.786949,35.005491
42082,משה גוטל לוין ד,32.786118,35.003194
42083,משה גוטל לוין/קדיש לוז,32.784776,35.004923
42084,צומת ברטעה,32.492393,35.078143
42085,קציר,32.486847,35.111035
42086,צומת קציר,32.483961,35.095857
42087,צומת ברטעה,32.491695,35.079008
42088,טשרניחובסקי/האקדמית גורדון,32.825298,34.969942
42089,הברון הירש/סטלה מאריס,32.819178,34.984036
42090,דרך סטלה מאריס,32.819128,34.982387
42091,רכבל/סטלה מאריס,32.82754,34.969384
42092,רוטשילד/אלנבי,32.82122,34.983818
42093,מרכז רפואי לין/שדרות רוטשילד,32.824771,34.984358
42094,רוטשילד/אלנבי,32.821158,34.984004
42096,חנקין/סוקולוב,32.812298,35.107017
42097,חנקין/רופין,32.812117,35.108071
42098,צומת קציר,32.483858,35.094476
42099,חנקין/גוטל לוין,32.78398,35.003739
42100,'כפר גלים ב,32.766466,34.955974
42101,מרכז העיר 1,32.693353,35.047053
42102,מסוף ג'ת,32.396462,35.042492
42103,בית עלמין/רזיאל,32.751332,34.973253
42104,חטיבת כרמלי א,32.794189,35.020656
42105,בי''ס צפרירים,32.426218,34.920571
42106,סילו,32.792459,35.124258
42107,נמל קישון,32.809035,35.026899
42108,עבאס/הבישוף חגאר,32.817819,34.982985
42109,מרכז קהילתי,32.44246,34.887078
42111,גורדון/שד. רוטשילד,32.435272,34.920425
