stop_code,stop_name,stop_lat,stop_lon
38833,מרכז ראשונים/הנחשול,31.984553,34.782828
38847,חיים ברלב/שדרות יצחק רבין,31.978011,34.764342
38854,מחנה צריפין/מועדון,31.963668,34.836363
38902,ברשבסקי/מנחם כהן,31.973257,34.812308
38904,יעקב פריימן/בנימין שמוטקין,31.975479,34.813355
38905,אנילביץ'/שלום אש,31.982177,34.789445
38906,נחמיה/בית העלמין,31.948552,34.822422
38907,יהודה הלוי/גבעתי,31.967681,34.815998
38911,גרינשפן/יגאל אלון,31.956842,34.814839
38912,השומר/האבות,31.959821,34.814747
38913,משה שרת/יעקב קנר,31.993406,34.754646
38914,מרכז ראשונים/הדייגים,31.98497,34.78262
38916,יוסף בורג/משואות יצחק,31.968049,34.818099
38917,יוסף בורג/כתריאל רפפורט,31.968936,34.820043
38920,שדרות משה דיין/יוסף לישנסקי,31.98568,34.764014
38921,השר חיים שפירא/יוסף ספיר,31.992583,34.751999
38922,השר חיים שפירא/הרב שלום ג'רופי,31.990757,34.755683
39001,שדרות יעקב/נחמיה,31.950002,34.819131
39002,שדרות יעקב/יוסף הנשיא,31.951813,34.820214
39569,אנילביץ/שלמה המלך,31.980533,34.789306
39937,רוז'נסקי/דוד רזיאל,31.987031,34.770425
39938,רוז'נסקי/דוד רזיאל,31.986975,34.770778
39941,מסוף קניון הזהב,31.989034,34.775225
39942,אברהם בר/רוז'נסקי,31.985865,34.774205
39943,קניון הזהב/דוד סחרוב,31.989251,34.774917
1243,פתח תקוה/זכרון יעקב,31.793459,35.201571
30001,צומת בית דגן,32.001227,34.820309
30011,איקאה/מרק מושביץ,31.950982,34.770578
31208,יוסף לישנסקי/דוד סחרוב,31.992394,34.766781
31266,כביש 42/נטעים,31.944577,34.781611
31283,דרך המכבים/שדרות הציונות,31.980172,34.808865
31285,לוי אשכול/ישראל גלילי,31.971982,34.774777
31290,קרית הלאום/ישראל גלילי,31.969901,34.781039
31322,לוי אשכול/ישראל גלילי,31.971672,34.774825
31332,הרצל/אהרון קרון,31.959982,34.802607
31339,ירושלים/החוחית,31.962228,34.81939
31342,דרך המכבים/פיק''א,31.973994,34.807102
31349,הרצל/קרן היסוד,31.971924,34.806218
31380,חונים קונים/לישנסקי,31.989986,34.765425
31441,לוי אשכול/חסידי אומות העולם,31.977009,34.777995
31444,קניון הזהב/משה לוי,31.989144,34.774216
31446,חונים קונים/לישנסקי,31.989502,34.765391
31474,ההסתדרות/התקומה,31.967876,34.78082
31483,רוטשילד/התקווה,31.963927,34.799386
31499,מכון וולקני/דרך המכבים,31.992317,34.8132
31579,דרך המכבים/אלי כהן,31.983173,34.809821
31580,דרך המכבים/בי''ס חקלאי,31.975438,34.807295
31583,דוד סחרוב/החומה,31.991525,34.77033
31584,דוד סחרוב/אליעזר מזל,31.990906,34.771288
31585,דוד סחרוב/אליעזר מזל,31.990447,34.77267
31586,דוד סחרוב/אלחנן,31.992354,34.767996
31610,משה דיין/גדולי ישראל,31.980484,34.775576
31611,ג'י סיטי/משה דיין ,31.983342,34.769206
31657,מתחם שבעת הכוכבים,31.98807,34.764321
31682,הרצל/אוסישקין,31.968741,34.80397
31683,משה לוי/נפתלי פלטין,31.987503,34.773181
31685,רוז'נסקי/משה לוי,31.986113,34.772754
31686,רוטשילד/ז'בוטינסקי,31.963913,34.800385
31688,רוטשילד/דב הוז,31.964526,34.793727
31690,רוטשילד/בן גוריון,31.964894,34.790532
31691,רוטשילד/שפרינצק,31.96475,34.790336
31696,רוטשילד/השדה,31.964349,34.794441
31724,מתחם שבעת הכוכבים,31.987946,34.764501
31751,ההסתדרות/גולדה מאיר,31.966975,34.783226
31753,הרצל/רוטשילד,31.964839,34.802785
31826,דוד סחרוב/משה לוי,31.989695,34.773893
32060,ישראל גלילי/התקומה,31.970255,34.780624
32062,לוי אשכול/הדגן,31.975475,34.777099
32250,ת. רכבת ראשונים,31.948274,34.801453
32264,צומת בית דגן/כביש 44,32.00267,34.819925
32382,כביש 4311/המדע,31.95142,34.776575
32779,קניון אם מושבות,32.098998,34.876335
32789,הבנים/האפרסמון,31.975379,34.804064
32794,קופת חולים/המושבה,31.97767,34.803857
32795,המושבה/העצמאות,31.978396,34.801306
32798,הרב צאלח/קיבוץ גלויות,31.984964,34.804035
32802,העצמאות/כל ישראל חברים,31.980389,34.801244
32869,זלמן שניאור/שלמה נתן,31.98299,34.786518
32870,זלמן שניאור/פוזננסקי,31.98344,34.786461
32872,מרכז רמת אליהו/זלמן שניאור,31.985606,34.787214
32877,נחמיה/עובדיה,31.94854,34.822109
32878,נחמיה/שדרות יעקב,31.949352,34.818734
32879,נחמיה/גדעון,31.950088,34.815667
32886,מורדי הגטאות/האתרוג,31.953071,34.828083
32888,יחזקאל הנביא/צפניה הנביא,31.952304,34.814658
32892,נחמיה/יחזקאל הנביא,31.953668,34.815715
32894,מורדי הגטאות/האורן,31.953981,34.824665
32919,מגדלי העיר/שדרות יעקב,31.954428,34.82152
32920,שדרות יעקב/הרקפת,31.955249,34.82227
32921,שדרות יעקב/החצב,31.957731,34.823224
32922,שדרות יעקב/הכלנית,31.95711,34.822792
32923,ירושלים/נוה זאב,31.960943,34.823643
32924,ירושלים/שדרות יעקב,31.960925,34.823186
32925,רמז/הגליל,31.962195,34.792339
32926,רמז/עולי הגרדום,31.962872,34.792664
32928,יהודה הלוי/הגדוד העברי,31.967118,34.811204
32930,פינסקר/חבד,31.968109,34.807347
32932,כצנלסון/פרופ' נחום,31.967113,34.798252
32934,אנילביץ'/שלום אש,31.981558,34.789417
32936,אנילביץ/הרב משה איבגי,31.984415,34.790012
32937,חנה סנש/זלמן שניאור,31.987687,34.787934
32938,שאול המלך/מלכי ישראל,31.978708,34.789148
32939,נחמיה/מלאכי,31.947826,34.824966
32944,נחמיה/מרבד הקסמים,31.948593,34.826656
32946,המייסדים/הברושים,31.973658,34.80629
32947,דרך המכבים/שדרות הציונות,31.981526,34.809642
33115,מסעף משמר השבעה,32.006425,34.81701
33116,טריגוסין/דרום,31.987429,34.830751
33117,צומת חב''ד,31.978425,34.836919
33118,כביש 44/דרך חיים הרצוג,31.973523,34.840538
33125,בן גוריון/ההסתדרות,31.965969,34.78958
33126,שד. בגין/פולה בן גוריון,31.972185,34.792254
33127,שד. בגין/השחר,31.971283,34.796517
33128,ז'בוטינסקי/שדרות בגין,31.970668,34.798466
33129,זבוטינסקי/קרית ספר,31.966558,34.799459
33285,טריגוסין/כביש 44,31.988533,34.830286
33286,מסעף משמר השבעה,32.00582,34.817845
33326,הרצל/סוקולוב,31.957388,34.802287
33331,שדרות בגין/יוהנה ז'בוטינסקי,31.971789,34.793755
33332,שד. בן גוריון/המעיין,31.969877,34.790197
33333,שדרות בן גוריון/ שדרות בגין,31.972018,34.791145
33334,בן גוריון/כצנלסון,31.966323,34.789799
33433,שדרות בגין/ז'בוטינסקי,31.971391,34.797557
33439,צומת חב''ד,31.979433,34.83654
33440,צומת בית דגן,32.002455,34.820515
33489,קניון אסף/44,31.968812,34.842185
33491,צריפין/בסיס אספקה,31.959154,34.836271
33496,מחנה צריפין/בהד 11,31.959136,34.833376
33502,מחנה צריפין,31.960555,34.835492
33503,מחנה צריפין/משטרה צבאית,31.959577,34.831812
33504,ירושלים/שלמה לוי,31.960016,34.827773
33508,בסיס מזון,31.95968,34.840204
33509,צריפין/בסיס מזון,31.961506,34.838388
33510,מחנה מצל''ח 6800,31.963589,34.836279
33512,ת. מרכזית ראשל''צ/רציפים,31.96779,34.785633
33513,ת. מרכזית רשל''צ/הורדה,31.968352,34.78533
33584,יגאל אלון/ראם,31.954575,34.815187
33587,ירושלים/שרה ואליהו,31.962236,34.810559
33588,אחד העם/הרב שלום סיבהי,31.962714,34.807644
33589,פינסקר/הרב קוק,31.96551,34.807471
33590,פינסקר/רוטשילד,31.965576,34.807358
33591,אחד העם/איתמר בן אב''י,31.963775,34.807541
33592,ירושלים/ביל''ו,31.961937,34.809041
33594,ירושלים/דוד הראובני,31.962321,34.813138
33595,ירושלים/השומר,31.962561,34.816165
33597,יגאל אלון/מישור הנוף,31.950888,34.811951
33737,צומת בית דגן,32.000365,34.821606
33815,אלי כהן/המוכתר,31.985812,34.807047
33838,אנילביץ/החלוץ,31.985965,34.789627
33872,שדרות היובל/האורנים,31.976743,34.79642
34081,משרד החקלאות/דרך המכבים,31.996519,34.817626
34278,גיבורי ישראל/השניים,31.985634,34.808744
34280,מכון וולקני/דרך המכבים,31.99368,34.814509
34309,ירושלים/הגדוד העברי,31.962129,34.811172
34310,ירושלים/דוד הראובני,31.962595,34.814639
34311,רוטשילד/וייצברד,31.96437,34.806394
34313,רמז/הר ציון,31.960073,34.791681
34314,כצנלסון/קפלן אליעזר,31.967458,34.79487
34316,יהודה הלוי/קידוש השם,31.967324,34.813064
34317,גבעתי/יהודה הלוי,31.968628,34.816534
34318,מרגולין/ברנדייס,31.969303,34.80832
34325,הרב צאלח/האגס,31.986001,34.805007
34327,שדרות רחבעם זאבי/יוסף ספיר,31.991111,34.749186
34328,בית ספר לכבאות/רחבעם זאבי,31.992489,34.746673
34330,חנה סנש/מרדכי אנילביץ,31.987599,34.78818
34331,הרב יוסף עזרן/דוד המלך,31.979253,34.785012
34332,שאול המלך/מלכי ישראל,31.979179,34.789088
34343,יוסף ספיר/שמעון ישראלי,31.99145,34.750377
34344,יוסף ספיר/השר חיים שפירא,31.993298,34.751645
34345,משה שרת/גלוסקא,31.994291,34.753068
34347,כצנלסון/לילינבלום,31.967249,34.797815
34348,כצנלסון/קפלן אליעזר,31.967515,34.795229
34351,שער ראשון/ירושלים,31.959704,34.82841
34389,מרכז קדמת ראשון/פופל,31.969951,34.815448
34416,כורש/זלמן שזר,31.995133,34.742842
34422,גן דודזון/סגל,31.971653,34.814073
34430,בן גוריון/מנחם בגין,31.970975,34.790924
34434,גבעתי/האחים סולימאן,31.964122,34.817071
34435,עזרא/שדרות יעקב,31.952632,34.820059
34443,קופת חולים/פינסקר,31.968047,34.807239
34445,אריה בן אליעזר/הורוביץ,31.959837,34.795095
34466,גולדה מאיר/החרצית,31.972742,34.786935
34467,גולדה מאיר/הסחלב,31.970922,34.786011
34481,הקישון/רמז,31.960505,34.792916
34564,הקישון/רמז,31.96046,34.79251
34566,אריה בן אליעזר/נחל שורק,31.959834,34.794987
34567,יואל דרובין/שלמה קפלנסקי,31.957363,34.799376
34579,גרינשפן/ברנשטיין,31.957041,34.814821
34589,מורדי הגטאות/זאב,31.955375,34.819032
34590,הרקפת/פטריה,31.950624,34.830783
34637,רוטשילד/הרב זינגר,31.964163,34.805928
34648,גולדה מאיר/ישראל גלילי,31.969147,34.78534
34649,חי כיף/גולדה מאיר,31.97344,34.787568
34650,יהודה הלוי/הגדוד העברי,31.966986,34.810883
34686,זלמן שז''ר/חיל הרגלים,31.995934,34.741906
34700,הכרמל/הרצל,31.96179,34.803548
34715,השומר/מזי''א,31.959361,34.814599
34767,ויניק/גן זמסקי,31.957249,34.796807
34768,מרכז ספורט/שדרות בן גוריון,31.973869,34.792138
34781,גולדה מאיר/ישראל גלילי,31.968169,34.78457
34782,ישראל גלילי/הסחלב,31.96913,34.784014
34783,ירושלים/בלפור,31.962413,34.812357
34784,מעפילי מרוקו/הנביאים,31.951739,34.830902
34798,חיל התותחנים/חיל השריון,31.998516,34.739034
34800,שדרות רחבעם זאבי/יוסף ספיר,31.990268,34.750133
34803,ישראל גלילי/זבולון המר,31.96898,34.783805
34804,העצמאות/מוליק איל,31.980258,34.801295
34813,גבעתי/שלמה אלירז,31.966235,34.81705
34817,נחמיה/הרקפת,31.950299,34.827553
34820,האלמוגים/השייטים,31.988249,34.779597
34821,האלמוגים/הרשת,31.987633,34.779064
34822,הנחשול/הלווייתן,31.988815,34.78111
34823,הנחשול/הדייגים,31.986236,34.783798
34824,הנחשול/אבא הלל סילבר,31.986176,34.783882
34825,הנחשול/הצדף,31.988601,34.781765
34826,מרכז ספורט רמת אליהו,31.984263,34.786108
34827,מרכז ספורט רמת אליהו,31.984689,34.78511
34873,ההסתדרות/חומה ומגדל,31.968202,34.779264
34905,אצל/נדב בסקינד,31.988318,34.76777
34906,מרכז מסחרי/אצ''ל,31.988689,34.766502
34907,מורדי הגטאות/האורן,31.953829,34.824892
34908,מורדי הגטאות/השזיף,31.953029,34.827898
34909,הרקפת/האמוראים,31.950472,34.830321
34910,נחמיה/יחזקאל הנביא,31.95027,34.815295
34911,יחזקאל הנביא/נחמיה,31.952266,34.814823
34912,יגאל אלון/רבי יהודה הנשיא,31.949342,34.811217
34921,נחמיה/אלפסי,31.949131,34.820019
34942,דרך המכבים/פריימן,31.977527,34.808252
34952,אצל/לישנסקי,31.989525,34.7645
34953,אצל/עליית הנוער,31.990615,34.761541
34958,מעפילי מרוקו/הנביאים,31.951681,34.830692
34960,שמוטקין/פריימן,31.975452,34.810973
34962,צבי פרנק/הגדוד העברי,31.970995,34.810534
34963,יואל דרובין/האחים סמילצ'נסקי,31.960601,34.799809
34964,יואל דרובין/צבי הירשפלד,31.958766,34.799498
34966,גלי הדר/קאונטרי,31.949244,34.787507
34968,בלבן/פיקא,31.971596,34.810355
34969,שמוטקין/ברשבסקי,31.973417,34.810803
34971,יהושע גיבשטיין/חיים בן אפרים,31.95345,34.811771
34972,יהושע גיבשטיין/יונה צבי פיינשטיין,31.954357,34.812691
34980,קפלנסקי/שדרות זמסקי,31.957983,34.796933
34982,אנילביץ'/החלוץ,31.986419,34.789584
34998,כצנלסון/י ל פרץ,31.967793,34.791262
35066,יואל דרובין/האחים סמילצנסקי,31.959954,34.799813
35067,עולי הגרדום/החייל האלמוני,31.960943,34.801422
35140,מוטה גור/אלי ויזל,31.968371,34.772481
35224,צומת עין הקורא,31.955524,34.784774
35297,כתריאל רפפורט/חנה ומיכאל לוין,31.967165,34.823857
35298,חנה ומיכאל לוין/ירושלים,31.962108,34.821655
35299,הדייגים/הסירה,31.986288,34.779696
35300,הדייגים/האלתית,31.986166,34.780156
35309,יהודה הלוי/יוחנן הסנדלר,31.967381,34.81429
35318,גולדה מאיר/הסיתוונית,31.976005,34.784778
35323,גולדה מאיר/חי כיף,31.975546,34.785606
35376,רוטשילד/גורדון,31.96426,34.79615
35400,ראשון לציון/רחובות,32.103648,34.876607
35519,מרכז ראשונים/הנחשול,31.983241,34.782299
35528,הנחשול/שדרות משה דיין,31.98024,34.779925
35534,משה דיין/לוי אשכול,31.979243,34.780344
35606,היקב/היוגבים,31.972406,34.778378
35608,היקב/הזמורה,31.972758,34.778467
35698,משה דיין/יצחק בן צבי,31.977782,34.79022
35699,המצלתיים/התזמורת,31.964691,34.77486
35700,המצלתיים/חומה ומגדל,31.964455,34.774902
35701,התזמורת/האורגן,31.966536,34.775557
35702,התזמורת/המפוחית,31.965785,34.775006
35704,התזמורת/החצוצרה,31.966308,34.772998
35705,החצוצרה/מוטה גור,31.965633,34.772201
35706,החצוצרה/התזמורת,31.965604,34.771808
35708,תור הזהב/הרשבא,31.977624,34.774455
35711,תור הזהב/בן סרוק,31.977096,34.774504
35712,גדולי ישראל/חיים בר לב,31.979163,34.765784
35722,מרכז כרמים/הסוכה,31.974331,34.778867
35723,נאות סיני/יצחק רבין,31.978647,34.760844
35744,ת. מרכזית ראשל''צ,31.967621,34.784636
35752,בי''ס מישור הנוף/יהושע גיבשטיין,31.951465,34.810211
35783,יהושע גיבשטיין/אריה ברגר,31.950189,34.809429
35803,מוטה גור/מוריי גלמן,31.967612,34.771625
35804,אצ''ל/אלטלנה,31.990789,34.760756
35805,אצ''ל/יוסף לישנסקי,31.989834,34.763394
35808,חיים בר לב/גדולי ישראל,31.979903,34.765788
35815,יצחק רבין/חיים ברלב,31.976708,34.76227
35863,שדרות היובל/נחלת יהודה,31.979315,34.797832
35873,ברשבסקי/מנחם כהן,31.973081,34.812305
35886,ת. רכבת הראשונים,31.94903,34.803908
35889,יהושע גיבשטיין/יונה צבי פיינשטיין,31.953837,34.811992
35908,הרצל/הרב הרצוג,31.967212,34.803052
35909,עין הקורא/הרצל,31.965847,34.802463
35916,לוי אשכול/תור הזהב,31.974028,34.776001
35919,נווה דקלים/רפידים,31.979649,34.760228
35920,החלוצים/נוב,31.984426,34.760923
35921,החלוצים/נוב,31.98389,34.760386
35922,נווה דקלים/נחל ים,31.979959,34.759476
35932,שמוטקין/ברשבסקי,31.974383,34.810697
35933,צבי פרנק/גבעתי,31.969201,34.816173
35935,חיים בר לב/משה דיין,31.982506,34.767779
35939,התזמורת/העוגב,31.968179,34.77554
35999,חיים בר לב/גדולי ישראל,31.979245,34.76498
36000,נגבה/חומה ומגדל,31.963659,34.776986
36001,מרכז גנים/נגבה,31.963426,34.777918
36002,נגבה/כפר חיטים,31.962787,34.780498
36003,נגבה/חניתה,31.963862,34.780975
36005,שדרות יעקב/ישעיהו הנביא,31.951875,34.819992
36006,מרכז קארדו/השירה העברית,31.97657,34.76984
36007,השירה העברית/המשוררת רחל,31.976,34.769899
36008,מרכז קארדו/השירה העברית,31.977879,34.769379
36009,מורשת ישראל/ריב''ל,31.974789,34.772474
36010,מורשת ישראל/הרב נריה,31.974885,34.773267
36011,גדולי ישראל/שייקה אופיר,31.978742,34.771402
36012,גדולי ישראל/אלקבץ,31.978765,34.771875
36014,חומה ומגדל/אושה,31.965369,34.776932
36015,נגבה/אושה,31.966402,34.778981
36016,חומה ומגדל/יצחק רבין,31.967519,34.777917
36017,חומה ומגדל/ההסתדרות,31.967518,34.778185
36019,נגבה/שדה נחום,31.96609,34.780086
36021,נגבה/דן,31.965174,34.781676
36023,ההסתדרות/גולדה מאיר,31.967223,34.781792
36024,התקומה/ישראל גלילי,31.971263,34.780097
36025,התקומה/היקינטון,31.972205,34.780916
36026,קניון הבאר/תור הזהב,31.974982,34.775439
36027,קניון הבאר/תור הזהב,31.97501,34.775829
36031,התקומה/שומרה,31.974849,34.782181
36032,התקומה/המורן,31.974784,34.78241
36040,רוטשילד/השקד,31.964161,34.796224
36042,גן הזיכרון/התקומה,31.97694,34.783429
36043,שדרות משה דיין/הרב יוסף עזרן,31.978633,34.783711
36044,שדרות משה דיין/התקומה,31.978041,34.785103
36045,שדרות משה דיין/שאול המלך,31.97742,34.788541
36046,שד. משה דיין/שאול המלך,31.977659,34.788426
36048,זבוטינסקי/שפינוזה,31.96788,34.799514
36050,ז'בוטינסקי/שדרות בגין,31.971693,34.798335
36051,משטרת ראשל''צ/ז'בוטינסקי,31.973526,34.797117
36052,משטרת ראשל''צ/ז'בוטינסקי,31.974784,34.79675
36053,ת. רכבת הראשונים,31.949155,34.803799
36055,מסוף אבי האסירים,31.954371,34.803814
36056,זבוטינסקי/האחים סמילצנסקי,31.960348,34.800948
36061,עולי הגרדום/רוטנברג,31.961062,34.801878
36062,היכל התרבות/זבוטינסקי,31.961971,34.800463
36063,היכל התרבות/זבוטינסקי,31.962669,34.800055
36069,מרגולין/צ''ג בנות,31.969224,34.808896
36070,הגדוד העברי/חב''ד,31.969004,34.810124
36071,הגדוד העברי/מרגולין,31.968705,34.810283
36072,שדרות יעקב/האשל,31.959691,34.823926
36073,שדרות יעקב/הורד,31.959666,34.823703
36083,צומת חב''ד,31.979243,34.837288
36086,זלמן שזר/חיל הים,31.99673,34.73928
36090,כורש/רחבעם זאבי,31.994732,34.742436
36091,כורש/זלמן שז''ר,31.996079,34.743003
36093,חיל התותחנים/אח''י חץ,31.998255,34.738173
36312,יוסף לישנסקי/דוד סחרוב,31.99324,34.767438
36315,יוסף לישנסקי/שייקה דן,31.994753,34.767269
36592,יעקוב פריימן/מנחם כהן,31.974883,34.814324
36646,מנחם כהן/הצופים,31.97462,34.813286
36731,קניון אם מושבות/ראשון לציון,32.100547,34.876439
36813,יגאל אלון/שדרות נים,31.948507,34.810421
37315,מחלף עין הקורא,31.956457,34.783763
37316,המכללה למנהל/אלי ויזל,31.96911,34.770469
37326,חיים בר לב/החלוצים,31.981841,34.766974
37327,שדרות יעקב/מורדי הגיטאות,31.955213,34.821998
37328,הרצל/אסא,31.962979,34.802919
37329,משה שרת/קנר,31.993117,34.755451
37334,הרב יוסף עזרן/שנהב,31.980348,34.785254
37335,מבצע משה/הנחשול,31.982015,34.782233
37336,הנחשול/ה' באייר,31.98122,34.780321
37504,שדרות היובל/פינסקר,31.981819,34.799524
37506,הרצל/בן זאב,31.969914,34.805183
37509,צבי פרנק/הרב צדוק,31.97199,34.808593
37597,מרכז כרמים/הסוכה,31.975462,34.779643
37602,ירושלים/האחד עשר,31.962267,34.819914
37605,גבעתי/קרייתי,31.963382,34.817396
37606,חנה ומיכאל לוין/חיים שרף,31.964906,34.823585
37607,גבעתי/רש''י,31.967412,34.816731
37622,צבי פרנק/ברנדייס,31.972102,34.807643
37623,רוטשילד/זבוטינסקי,31.963819,34.800335
37624,הרצל/תרמ''ב,31.966379,34.802881
37625,הרצל/ינובסקי,31.958395,34.801979
37626,הרצל/עין הקורא,31.966292,34.80265
37628,יוסף ספיר/השר חיים שפירא,31.992621,34.750967
37634,הרצל/שדרות תש''ח,31.955339,34.802324
37639,הרצל/אבי האסירים,31.954778,34.802695
37644,הרצל/הכרמל,31.962545,34.803188
37650,צבי פרנק/יוחנן הסנדלר,31.970067,34.812814
37651,צבי פרנק/יעקובזון,31.970223,34.812877
37658,סגל/פיקא,31.972454,34.81445
37663,צומת צריפין לצפון,31.969932,34.843347
37664,מחנה צריפין,31.962907,34.836459
37792,ת. רכבת ראשונים,31.949222,34.801928
37928,בי''ס לכבאות/רחבעם זאבי,31.99291,34.74513
37939,כתריאל רפפורט/חיים הרצוג,31.966961,34.82445
38016,אברהם בומה שביט/התגלית,31.950223,34.762385
38019,אברהם בומה שביט/מרק מושביץ,31.950967,34.76905
38021,התזמורת/הקלרנית,31.963831,34.773968
38022,המכללה למינהל/מוטה גור,31.969801,34.773176
38047,סופרלנד/שדרות מינסטר,31.979084,34.74321
38048,סופרלנד/שדרות מינסטר,31.979174,34.742528
38049,איקאה/היוזמה,31.951151,34.770731
38144,דרך המכבים/אלי כהן,31.984633,34.81074
38150,ז'בוטינסקי/רוטשילד,31.964472,34.799939
38157,לוי אשכול/חסידי אומות העולם,31.977439,34.777987
38169,שדרות משה דיין/אבני החושן,31.981051,34.774529
38170,סינמה סיטי/משה דיין,31.982591,34.77123
38171,שדרות משה דיין/בסקינד,31.984956,34.766404
38172,שדרות משה דיין/הנחשול,31.979905,34.7787
38173,לוי אשכול/היין,31.972967,34.775657
38428,ת. רכבת ראשונים,31.950976,34.801211
38432,נסיה/התעשיין,31.98561,34.815841
38433,בנימין שמוטקין/טוליפמן,31.982442,34.814295
38435,שמוטקין/פנחס בן דוד,31.979307,34.81265
38436,שמוטקין/פריימן,31.977057,34.811926
38437,שמוטקין/טוליפמן,31.98053,34.81354
38460,שדרות הציונות/אלימלך צמיר,31.981735,34.806363
38472,נחמיה/דבורה הנביאה,31.949635,34.817988
38495,חנה ומיכאל לוין/ירושלים,31.962976,34.822068
38507,סינמה סיטי/משה דיין,31.981765,34.772339
11565,שד.ראשון לציון/יסוד המעלה,31.782395,34.658259
11566,שד.ראשון לציון/שפייה,31.781359,34.660929
13112,ראשל''צ / דגניה,31.782302,34.658763
13117,שד.ראשון לציון/שפייה,31.781409,34.661052
38607,גולדה מאיר/ההרדוף,31.970953,34.786275
38634,ת. רכבת משה דיין,31.987491,34.757304
38635,ת. רכבת משה דיין,31.987208,34.757307
38679,שמעון פרס/הנרי קיסינג'ר,31.96884,34.768578
38680,מרכז פרס נובל,31.96785,34.765001
38681,מרכז פרס נובל,31.968494,34.763981
38683,המכללה למינהל/מוטה גור,31.969716,34.773428
38684,נווה דקלים/פרי גן,31.979313,34.763289
38685,שמעון פרס/מעגל השלום,31.97156,34.763581
38686,כצנלסון/ארלוזורוב,31.967711,34.793144
38690,כביש 4311/מושביץ,31.948909,34.770685
38691,ביה''ס אבני החושן/ה באייר,31.982914,34.774701
38692,אברהם בומה שביט/התגלית,31.950059,34.762258
38694,אברהם בומה שביט/מרק מושביץ,31.950808,34.769018
38697,שדרות היובל/כל ישראל חברים,31.979898,34.79861
38701,שמעון פרס/ורבורג,31.970816,34.762843
38702,שמעון פרס/מעגל השלום,31.968159,34.767743
38706,צומת עין הקורא,31.955641,34.78427
38719,מרכז רמת אליהו/זלמן שניאור,31.985493,34.787393
38721,צומת עין הקורא,31.955792,34.787394
38739,בן גוריון/כיכר השוטר,31.967036,34.789549
38765,חוף ראשון לציון,31.996452,34.733902
38798,חנה ומיכאל לוין/חיים שרף,31.964139,34.823245
38799,בית עלמין צבאי/יוסף בורג,31.968847,34.819409
38801,צומת עין הקורא,31.956807,34.786252
38802,ג'י סיטי/חיים בר-לב,31.983128,34.767979
38803,בסקינד/הכשרת הישוב,31.988595,34.768822
38804,גדולי ישראל/השירה העברית,31.978316,34.767407
38809,גולדה מאיר/הסיתוונית,31.976016,34.784023
38810,אנילביץ'/צייטלין,31.984269,34.789882
38811,כביש 4311/כביש 412,31.95373,34.778514
38812,כביש 4311/המדע,31.950591,34.775117
38813,כביש 4311/מושביץ,31.949267,34.7722
38814,כביש 4311/נטעים,31.949374,34.773575
38815,צומת עין הקורא,31.955737,34.781706
38817,התזמורת/הקלרנית,31.964225,34.77408
38818,התזמורת/הגיתית,31.964756,34.771862
38823,נווה דקלים/החלוצים,31.981693,34.764979
38824,נווה דקלים/נתיב העשרה,31.979799,34.763536
38825,התזמורת/התוף,31.964231,34.771467
38826,המכללה למנהל/יצחק רבין,31.970068,34.77469
38939,העצמאות/אהרון אוזן,31.984372,34.80375
38958,מתחם פלאנט,31.980599,34.74823
38970,שדרות היובל/העצמאות,31.982838,34.801209
38971,שדרות הציונות/העצמאות,31.982048,34.803062
31850,ת. רכבת משה דיין,31.987896,34.758433
31851,יגאל אלון/הרב טיבוביץ,31.961191,34.820654
31852,יגאל אלון/גרינשפן,31.955587,34.815835
31853,קניון ראשונים/שדרות נים,31.949172,34.805243
31854,קניון ראשונים/שדרות נים,31.949262,34.804653
31855,יגאל אלון/מורדי הגטאות,31.956499,34.816975
38358,מנחם גינדי/חיים הרצוג,31.968574,34.82668
38359,יוסף בורג/מנחם גינדי,31.970026,34.821507
38360,כתריאל רפפורט/האחד עשר,31.968655,34.820969
38361,כתריאל רפפורט/דר יוסף בורג,31.968552,34.821348
38362,יוסף בורג/ההתיישבות,31.970626,34.822298
44237,תחנת מוניות ראשון לציון שד' יעקב,31.95521,34.821996
44236,תחנת מוניות ראשון לציון שד' יעקב,31.955195,34.822241
44235,תחנת מוניות ראשון לציון הרצל,31.964505,34.802816
44234,תחנת מוניות ראשון לציון הרצל,31.964904,34.803014
44233,תחנת מוניות ראשון לציון אבי האסירים,31.954363,34.804584
44232,תחנת מוניות ראשון לציון אבי האסירים,31.954163,34.804609
44231,תחנת מוניות ראשון לציון רכבת ראשונים,31.949086,34.803704
44230,תחנת מוניות ראשון לציון בנימין שמוטקין,31.982386,34.814526
44229,תחנת מוניות ראשון לציון בנימין שמוטקין,31.982462,34.814305
44228,תחנת מוניות ראשון לציון דוד סחרוב,31.990151,34.773305
44227,תחנת מוניות ראשון לציון דוד סחרוב,31.990031,34.773176
44098,תחנת מוניות ראשון לציון הטיילת ורחבעם זאבי,31.996899,34.73169
44097,תחנת מוניות ראשון לציון הטייל ורחבעם זאבי,31.996809,34.731702
44027,תחנת מוניות ראשל''צ הרב יוסף עזרן מבצע משה,31.979757,34.784985
44026,תחנת מוניות ראשל''צ הרב יוסף עזרן מבצע משה,31.979682,34.785202
44025,תחנת מוניות ראשון לציון קאנטרי קלאב,31.949501,34.786387
37413,מסוף קניון הזהב,31.988604,34.775088
37456,התקומה/ההסתדרות,31.969032,34.77904
37477,רנה קאסן/שדרות יצחק רבין,31.975469,34.762135
37476,חנה ומיכאל לוין/אולגה ויהושע,31.965565,34.824364
37475,החלוצים/עין זיוון,31.984776,34.762805
37474,החלוצים/יונתן,31.983427,34.765217
30065,רבי עקיבא/רבי נחמיה מוטא,31.947707,34.823116
30064,רבי עקיבא/רבי נחמיה מוטא,31.947781,34.823278
30063,קנר/משה שרת,31.992743,34.754769
30060,שדרות מינסטר/שדרות רחבעם זאבי,31.991811,34.746649
30497,יעקב פריימן/תנועות הנוער,31.974135,34.816838
30549,רחבעם זאבי/שדרות מינסטר,31.991852,34.747253
31040,ראשון לציון/זכרון יעקב,32.101389,34.876859
30992,ראשון לציון/שרגא רפאלי,32.106284,34.875933
31218,כורש/ארגמן,31.996944,34.743608
31371,שדרות רחבעם זאבי/כורש,31.994751,34.740157
31439,זלמן שז''ר/חיל התותחנים,31.997106,34.738346
31438,זלמן שז''ר/חיל הנדסה,31.996211,34.741303
31762,אלי כהן/האחים גלזר,31.985153,34.808204
31761,אלי כהן/גיבורי ישראל,31.985288,34.808144
31760,אלי כהן/מעפילי אקסודוס,31.986263,34.806552
32006,אריה שנקר/התגלית,31.951159,34.760783
39941,מסוף קניון הזהב,31.989034,34.775225
33114,לוז/התפוז,31.987439,34.804398
33112,לוז/בארי,31.989915,34.805938
33108,שלום שבזי/גיבורי ישראל,31.99055,34.809113
33106,גיבורי ישראל/שלום שבזי,31.989225,34.810723
33132,יעקב פריימן/תנועות הנוער,31.973492,34.817952
33727,אברהם בר/רוז'נסקי,31.985098,34.773428
35258,התזמורת/הפסנתר,31.966947,34.773343
35286,המהר''ל מפראג/עובדיה,31.948002,34.822188
35285,המהר''ל מפראג/הרב חיים דוד הלוי,31.947125,34.818151
35284,רבי יהודה הנשיא/הרב חיים דוד הלוי,31.947399,34.817125
35283,רבי יהודה הנשיא/שמגר,31.948362,34.813134
35282,רבי יהודה הנשיא/הסנהדרין,31.948039,34.813806
35561,רבי עקיבא/חיים חפר,31.94648,34.828606
35556,רבי עקיבא/חיים חפר,31.946312,34.828888
35546,דודו דותן/חיים חפר,31.948178,34.830926
35542,חיים חפר/דודו דותן,31.947942,34.830324
35529,חיים חפר/דודו דותן,31.948704,34.830484
35666,שדרות הציונות/דרך המכבים,31.981084,34.808515
36049,צומת בית דגן/כביש 412,32.001305,34.820772
36146,חונים נוסעים ראשון לציון/יוסף טומי לפיד,31.973013,34.752568
36145,חונים נוסעים ראשון לציון/דרך ההצלחה,31.972627,34.751512
36265,יוסף טומי לפיד/דרך ההצלחה,31.974203,34.750745
36057,תחנה מרכזית/ההסתדרות,31.966063,34.785934
36054,ת. מרכזית ראשל''צ/ההסתדרות,31.966391,34.784035
36494,אפרים קישון/אריק איינשטיין,31.9493,34.827589
36055,מסוף אבי האסירים,31.954371,34.803814
39941,מסוף קניון הזהב,31.989034,34.775225
36055,מסוף אבי האסירים,31.954371,34.803814
36055,מסוף אבי האסירים,31.954371,34.803814
33512,ת. מרכזית ראשל''צ/רציפים,31.96779,34.785633
33512,ת. מרכזית ראשל''צ/רציפים,31.96779,34.785633
33512,ת. מרכזית ראשל''צ/רציפים,31.96779,34.785633
33512,ת. מרכזית ראשל''צ/רציפים,31.96779,34.785633
33512,ת. מרכזית ראשל''צ/רציפים,31.96779,34.785633
33512,ת. מרכזית ראשל''צ/רציפים,31.96779,34.785633
33512,ת. מרכזית ראשל''צ/רציפים,31.96779,34.785633
33512,ת. מרכזית ראשל''צ/רציפים,31.96779,34.785633
33512,ת. מרכזית ראשל''צ/רציפים,31.96779,34.785633
33512,ת. מרכזית ראשל''צ/רציפים,31.96779,34.785633
33512,ת. מרכזית ראשל''צ/רציפים,31.96779,34.785633
33512,ת. מרכזית ראשל''צ/רציפים,31.96779,34.785633
33512,ת. מרכזית ראשל''צ/רציפים,31.96779,34.785633
39941,מסוף קניון הזהב,31.989034,34.775225
33512,ת. מרכזית ראשל''צ/רציפים,31.96779,34.785633
33512,ת. מרכזית ראשל''צ/רציפים,31.96779,34.785633
33512,ת. מרכזית ראשל''צ/רציפים,31.96779,34.785633
33512,ת. מרכזית ראשל''צ/רציפים,31.96779,34.785633
33512,ת. מרכזית ראשל''צ/רציפים,31.96779,34.785633
36664,משה שרת/פנקס,31.995642,34.750332
36749,שדרות רחבעם זאבי/דיסקונט,31.989129,34.752723
36751,שדרות רחבעם זאבי/דיסקונט,31.988594,34.753272
36926,שלמה לוי/שער יפו,31.962154,34.827882
36925,שלמה לוי/ירושלים,31.960491,34.828193
36988,שדרות משה דיין/נדב בסקינד,31.984346,34.767163
36990,שדרות משה דיין/אברהם בר,31.982339,34.771198
37002,אברהם בר/ילדי טהרן,31.984075,34.773098
37003,אברהם בר/דוד סחרוב,31.98812,34.775305
37010,קניון הזהב/אברהם בר,31.989364,34.776058
37001,אברהם בר/ילדי טהרן,31.983014,34.772199
37004,קניון הזהב/אברהם בר,31.989385,34.776371
37011,שייקה דן/לזרוב,31.991695,34.776876
37023,שדרות משה דיין/יוסף לישנסקי,31.986351,34.762775
37496,כביש 44/דרך חיים הרצוג,31.974783,34.840117
37494,כביש 4311/התגלית,31.94849,34.762274
37516,הר סיני/סעדיה גאון,31.946036,34.827446
37567,בנימין שמוטקין/התעשיין,31.983695,34.814951
2883,תחנה תפעולית/חניון מעוין שורק,31.953053,34.776262
3404,ראשון לציון/שרגא רפאלי,32.105077,34.87624
39650,בית ספר רמב''ם/הרב שלום שבזי,32.090333,34.948825
39660,פארק סיבל/יציאה מכביש 5,32.10624,34.961352
39661,מחלף ראש העין מזרח,32.107139,34.961855
39662,מחלף ראש העין מזרח,32.107606,34.962074
39669,קיבוץ גלויות/נחל רבה,32.100308,34.969446
39670,קיבוץ גלויות/דרך בגין,32.096941,34.97054
39707,צומת רכבת ראש העין צפון,32.123156,34.93743
39709,מחלף קסם,32.114882,34.941641
32007,צה''ל/אבן עזרא,32.100029,34.94814
32011,מחלף ראש העין דרום לדרום,32.082903,34.950875
32017,צומת רכבת קסם,32.124664,34.937687
32021,מחלף ראש העין דרום לצפון,32.084393,34.951577
32052,תחנת רכבת ראש העין צפון/רציפים,32.121176,34.934822
32569,מחלף קסם,32.115483,34.941008
32571,כביש 444/המרץ,32.105149,34.936031
32573,מכללת ראש העין/מבצע בזק,32.094253,34.973436
32574,מכללת ראש העין/מבצע בזק,32.094237,34.973739
32578,בית הקשת / ברקן,32.094059,34.979602
32582,דרך הציונות / הדרור,32.100413,34.962434
32583,דרך הציונות/בזלת,32.100446,34.962133
32584,דרך הציונות/יונה,32.101944,34.960656
32585,דרך הציונות/בזלת,32.103535,34.959327
32586,דרך הציונות/יונה,32.102185,34.960643
32587,בית ספר טל/דרך מנחם בגין,32.097546,34.960232
32588,חטיבת ביניים גוונים/מנחם בגין,32.097645,34.96273
32589,חטיבת ביניים גוונים/מנחם בגין,32.097544,34.962229
32591,דרך מנחם בגין/הפרחים,32.096958,34.965021
32592,דרך בגין/דן,32.096426,34.966527
32593,דרך מנחם בגין/הפרחים,32.09713,34.964913
32595,שכונת נווה אפק/ה' באייר,32.096447,34.976638
32596,גינת מבצע דני/ה' באייר,32.099021,34.975084
32597,ה' באייר / מבצע דני,32.096624,34.974123
32598,ה' באייר/בזק,32.094644,34.972173
32599,ה' באייר/מבצע חירם,32.096859,34.97138
32600,צומת פארק אפק,32.108532,34.962838
32601,המלאכה/עמל,32.108246,34.969513
32602,מרכז תעסוקה לנכה/המלאכה,32.10944,34.967144
32603,המרץ/היצירה,32.105566,34.939485
32604,אזור תעשיה,32.1057,34.939714
32605,המרץ/444,32.106074,34.937694
32607,הנביאים/וולפסון,32.096632,34.948734
32608,הנביאים/וולפסון,32.096656,34.948631
32612,הרב שלום שבזי/בעל מלאכת שלמה,32.088918,34.950899
32613,הרב שלום שבזי/בעל מלאכת שלמה,32.088442,34.951297
32614,הרב שלום שבזי/העצמאות,32.097436,34.94278
32615,הרב שלום שבזי / שלמה המלך,32.095665,34.944432
32616,כיכר אלי כהן / הרב שלום שבזי,32.099276,34.941532
32618,מצפה אפק/הרב שלום שבזי,32.087166,34.958364
32619,הרב שלום שבזי / צה''ל,32.097449,34.943007
32620,הרב שלום שבזי/שלום מנצורה,32.0992,34.941369
32621,מצפה אפק/הרב שלום שבזי,32.087046,34.958442
32622,ככר המשוררים,32.087423,34.954011
32623,הרב שלום שבזי / רמת הגולן,32.086917,34.955635
32624,הרב שלום שבזי / רמת הגולן,32.086795,34.955516
32625,שבזי/וולפסון,32.095598,34.944248
32626,הרש''ש/הנביאים,32.098406,34.949646
32629,אבן עזרא/הגר''א,32.102655,34.946207
32630,הרש''ש/הנביאים,32.098496,34.949713
32632,וולפסון/הנביאים,32.096424,34.9485
32635,ז'בוטינסקי/שילה,32.089013,34.96056
32636,ז'בוטינסקי / כרמל,32.09038,34.961416
32637,ז'בוטינסקי / כרמל,32.0901,34.961325
32638,צומת כרמל,32.093691,34.963853
32639,מרכז מסחרי/ז'בוטינסקי,32.092294,34.965935
32640,ז'בוטינסקי/משה דיין,32.092963,34.964991
32641,ז'בוטינסקי/זית,32.093088,34.961371
32645,יהודה הלוי/ שילה,32.092166,34.954192
32647,הרב שלום שבזי/יהודה הלוי,32.087758,34.953017
32648,יהודה הלוי/הנביאים,32.098964,34.954695
32649,יהודה הלוי/צה''ל,32.101608,34.954574
32652,יהודה הלוי/מלכי ישראל,32.091845,34.953967
32653,יהודה הלוי/תיכון בגין,32.090619,34.95384
32654,יהודה הלוי/רש''י,32.099797,34.954973
32655,יהודה הלוי/רש''י,32.088279,34.953659
32656,בי''ס תיכון בגין/יהודה הלוי,32.090292,34.954004
32657,יהושע בן נון/צה''ל,32.102346,34.954574
32658,יהושע בן נון/יחיא יצחק הלוי,32.102824,34.952082
32661,יהושע בן נון/כנפי נשרים,32.103965,34.947376
32662,יהושע בן נון/יחיא יצחק הלוי,32.103088,34.951177
32664,פארק סיבל/יציאה לכביש 5,32.108854,34.961605
32669,מלכי ישראל/עליזה בגין,32.09397,34.949957
32670,מלכי ישראל/עליזה בגין,32.0943,34.949714
32671,מלכי ישראל/יהודה הלוי,32.09263,34.95259
32672,מלכי ישראל/ג'ון קנדי,32.093038,34.95161
32673,יהודה הלוי/מלכי ישראל,32.092483,34.953663
32674,שלום מנצורה/הרב שלום זכריה,32.101512,34.941065
32675,שלום מנצורה/רבי עקיבא,32.102019,34.9412
32676,שוק/מנצורה,32.104628,34.941635
32677,מנצורה/המרץ,32.104442,34.941775
32678,גן ציבורי/משה דיין,32.096861,34.963639
32679,משה דיין/מנחם בגין,32.096487,34.963891
32680,משה דיין/דן,32.094713,34.965293
32681,מנור/נווה אפיקים,32.09133,34.975106
32682,מכללת ראש העין/נווה אפיקים,32.092921,34.972441
32683,נווה אפיקים/בשן,32.092185,34.977773
32684,בית הקשת/נווה אפיקים,32.09337,34.979395
32685,מכללת ראש העין/נווה אפיקים,32.092838,34.972736
32686,נווה אפיקים/מתנ''ס לב אפק,32.093115,34.970968
32688,מנור/נווה אפיקים,32.09142,34.975099
32689,נווה אפיקים/מתנ''ס לב אפק,32.092862,34.970582
32690,נחל רבה/חט''ב גוונים,32.098953,34.963262
32691,נחל רבה/דרך הציונות,32.099615,34.964129
32692,נחל רבה/חט''ב גוונים,32.098018,34.963342
32693,נתן שאול/יהודה הלוי,32.102112,34.955338
32695,בית העלמין,32.103306,34.958089
32696,'עמל א,32.106728,34.967535
32697,עמל/המלאכה,32.106323,34.970417
32699,צה''ל/זכריה משה,32.099058,34.945597
32701,צה''ל/חזון אי''ש,32.098574,34.94427
32702,צה''ל/חזון אי''ש,32.098412,34.944139
32703,צה''ל/יהושע בן נון,32.101824,34.9538
32704,צה''ל/השריון,32.099303,34.945923
32705,צה''ל/אבן עזרא,32.100035,34.947882
32706,צה''ל/הרש''ש,32.100402,34.9492
32707,צה''ל/הרש''ש,32.10053,34.949285
32708,צה''ל/מודיעין,32.101268,34.951608
32709,צה''ל/מודיעין,32.101389,34.952374
32713,קיבוץ גלויות/ז'בוטינסקי,32.091327,34.970119
32714,רש''י/החלוץ,32.090631,34.957175
32715,רש''י/צדק,32.089682,34.956231
32716,רש''י/הגליל,32.097384,34.956844
32717,רש''י/הגליל,32.098,34.956905
32718,רש''י/רעות,32.099268,34.955994
32719,רש''י/ששת הימים,32.094742,34.957413
32720,רש''י/ששת הימים,32.095155,34.957359
32721,רש''י/שילה,32.092292,34.958019
32722,רש''י/שילה,32.093179,34.958186
32723,רש''י/רעות,32.09925,34.956203
32724,שד. שלמה המלך/אצ''ל,32.093812,34.941685
32725,צומת שבזי,32.095005,34.944155
32726,שד. שלמה המלך/אפק,32.093783,34.942043
32727,צומת שבזי,32.095179,34.944074
32783,יהושע בן נון/יחיא יצחק הלוי,32.103322,34.949294
32887,יהושע בן נון/כנפי נשרים,32.103923,34.946717
33022,אבן עזרא/הגר''א,32.102536,34.946117
34719,מחלף קסם,32.113766,34.939325
35366,הרב שלום שבזי/שלמה מעודה,32.093034,34.94634
35367,ז'בוטינסקי/מרכז מסחרי,32.091469,34.966915
35368,בית עלמין,32.10331,34.956924
35369,יהושע בן נון/הרש''ש,32.103499,34.949275
35370,דרך מנחם בגין/דן,32.096331,34.967836
35372,בית ספר טל/דרך מנחם בגין,32.097739,34.959295
35420,יהודה הלוי/רש''י,32.089111,34.95465
35421,רש''י/החלוץ,32.091094,34.957407
35422,רש''י/יהודה הלוי,32.089181,34.95423
35424,רש''י/צדק,32.089587,34.956246
35607,צומת עינת לצפון/כביש 444,32.090468,34.943421
35610,כביש 444 לצפון/שד' שלמה המלך,32.093495,34.939967
35861,הרב שלום שבזי/משעול הרב שלמה מדר,32.089956,34.949032
36365,יהודה הלוי/הרב כלף,32.095966,34.9544
36983,ברקן/בזק,32.093606,34.974684
36985,ברקן/ארבל,32.094237,34.976028
36986,נווה אפיקים/בשן,32.092269,34.977734
37553,הרב שלום שבזי/שלמה מעודה,32.093631,34.945996
37557,יהודה הלוי/הרב כלף,32.095546,34.95453
37874,שילה/רש''י,32.09277,34.956672
37875,שילה/רש''י,32.093002,34.957584
38726,הפרחים/ורד,32.099212,34.967348
38728,עירית/אמנון ותמר,32.097206,34.967967
38729,דן/דרך מנחם בגין,32.095842,34.967119
38730,כרמל/אלון,32.092324,34.964173
38738,דן/זיו,32.094909,34.966854
38956,הנביאים/קנדי,32.09898,34.951548
44033,תחנת מוניות ראש העין נתן שאול,32.103435,34.957438
44032,תחנת מוניות ראש העין נתן שאול,32.103298,34.957582
30213,נתן אלתרמן,32.083132,34.981515
30211,נתן אלתרמן/יגאל אלון,32.084638,34.981434
30205,נתן אלתרמן/יגאל אלון,32.083971,34.981805
30197,תרצה אתר,32.088244,34.981155
30192,אלוף הרב גורן,32.089327,34.980665
30180,יגאל אלון/אלוף הרב גורן,32.088011,34.976723
30179,גולדה מאיר/יגאל אלון,32.088282,34.974282
30177,גולדה מאיר/יגאל אלון,32.088756,34.9744
30175,גולדה מאיר/חיים הרצוג,32.085446,34.971537
30174,הרב שלום שבזי/ש''י עגנון,32.084539,34.968689
30173,הרב שלום שבזי/ש''י עגנון,32.08463,34.968828
30170,הרב שלום שבזי/נלי זקס,32.084515,34.965352
30168,ככר המשוררים/יהודה לוי,32.086808,34.953509
30842,אבן עזרא/מודיעין,32.10083,34.946671
30841,אבן עזרא/מודיעין,32.10073,34.946598
31320,קיבוץ גלויות/נווה אפיקים,32.092186,34.969894
31296,קיבוץ גלויות/נווה אפיקים,32.093311,34.96999
31295,וולפסון/הרב שלום שבזי,32.09562,34.94516
31406,מנור/איילון,32.090593,34.975576
31388,מנור/פולג,32.089854,34.975269
31379,וולפסון/הנביאים,32.096338,34.948405
31486,עירית/יקינטון,32.097296,34.968431
31484,גלוסקא/העצמאות,32.097468,34.939818
31477,המוביל הארצי/הירקון,32.098483,34.938575
31487,כרמל/לכיש,32.08985,34.964323
31480,הירקון/העצמאות,32.097079,34.938691
31479,הירקון/התנאים,32.097351,34.93832
31472,המוביל הארצי,32.098837,34.938246
31729,יהושע בן נון/שלום מנצורה,32.104791,34.943717
31728,יהושע בן נון/אפיק,32.104676,34.944656
31786,הרב שלום שבזי/נלי זקס,32.084701,34.964125
31785,חיים הרצוג/נתן אלתרמן,32.081845,34.980176
31784,נתן אלתרמן/חיים הרצוג,32.082106,34.981003
31783,אלוף הרב גורן/יגאל אלון,32.088085,34.977401
31782,יגאל אלון/יפה ירקוני,32.087361,34.977545
31781,יגאל אלון/שייקה אופיר,32.086541,34.979069
31780,גולדה מאיר/חיים הרצוג,32.086484,34.972803
31779,חיים הרצוג/שייקה אופיר,32.084405,34.975473
31778,גולדה מאיר/הרב שלום שבזי,32.084131,34.971006
31777,גולדה מאיר/שדרות בן גוריון,32.083069,34.971182
31776,שדרות בן גוריון/גולדה מאיר,32.082722,34.970032
31775,שדרות בן גוריון/נלי זקס,32.081748,34.965694
31774,שדרות בן גוריון/נלי זקס,32.081808,34.963619
31773,שדרות בן גוריון/חיים וייצמן,32.083317,34.960959
31772,שדרות בן גוריון/חיים וייצמן,32.084658,34.960229
31771,הרב שלום שבזי/שילה,32.085811,34.958108
31770,שדרות בן גוריון/יהודה הלוי,32.084122,34.954968
31822,הרב שלום שבזי/חיים וייצמן,32.085046,34.960936
31820,אלוף הרב גורן/יגאל אלון,32.088108,34.977288
31817,יגאל אלון/תרצה אתר,32.086168,34.98012
31815,חיים הרצוג/נתן אלתרמן,32.081286,34.980857
31814,חיים הרצוג/שייקה אופיר,32.083802,34.976185
31811,חיים הרצוג/גולדה מאיר,32.08572,34.972623
33387,יוסי בנאי/לאה גולדברג,32.086996,34.983853
33385,יוסי בנאי/דליה רביקוביץ,32.084645,34.984744
33526,אלוף הרב גורן/תרצה אתר,32.088578,34.981695
33525,שדרות בן גוריון/חיים הרצוג,32.080612,34.983455
35345,שדרות בן גוריון,32.088349,34.983083
35470,מעיין/אפיק,32.10579,34.945298
35465,מעיין/אפיק,32.105554,34.945797
35464,שמואל הנביא/אחיה השילוני,32.078229,34.982522
35463,שמואל הנביא/אחיה השילוני,32.078004,34.981989
35460,חבקוק/מרים הנביאה,32.079742,34.984337
35459,חבקוק/שדרות בן גוריון,32.079852,34.983486
35458,מרים הנביאה/שמואל הנביא,32.07869,34.985009
35457,מרים הנביאה/שמואל הנביא,32.079139,34.984774
35455,מרים הנביאה/אליהו הנביא,32.0766,34.988838
35453,אליהו הנביא/זכריה,32.076849,34.989087
35452,אליהו הנביא/עמוס הנביא,32.079011,34.988442
35431,אליהו הנביא/שמואל הנביא,32.080342,34.987885
35427,אליהו הנביא/מרים הנביאה,32.081507,34.987658
35408,אליהו הנביא/ירמיהו הנביא,32.082675,34.986822
35395,אליהו הנביא/ירמיהו הנביא,32.082907,34.98637
35479,אלברט איינשטיין/נלי זקס,32.086803,34.965876
35478,אלברט איינשטיין/נלי זקס,32.086613,34.966238
35481,חיים הרצוג/ניסים אלוני,32.082662,34.978286
35658,מרים הנביאה/עמוס הנביא,32.077154,34.986749
35656,מרים הנביאה/עמוס הנביא,32.077479,34.986352
36036,אפיק/יהושע בן נון,32.104897,34.945403
36035,חיים הרצוג/ניסים אלוני,32.08308,34.977947
36133,מתחם נצבא,32.112445,34.941549
36128,מתחם נצבא,32.111795,34.940668
36377,אלברט איינשטיין/ש''י עגנון,32.086791,34.968429
36374,אלברט איינשטיין/ש''י עגנון,32.086583,34.967925
36318,אלברט איינשטיין/גולדה מאיר,32.087068,34.971961
36317,אלברט איינשטיין/גולדה מאיר,32.086901,34.972143
35910,כרמל/ז'בוטינסקי,32.08946,34.961537
36920,הרב שלום שבזי/שילה,32.085649,34.958617
37284,תחנת רכבת ראש העין צפון/הורדה,32.121336,34.934637
32052,תחנת רכבת ראש העין צפון/רציפים,32.121176,34.934822
32052,תחנת רכבת ראש העין צפון/רציפים,32.121176,34.934822
32052,תחנת רכבת ראש העין צפון/רציפים,32.121176,34.934822
32052,תחנת רכבת ראש העין צפון/רציפים,32.121176,34.934822
32052,תחנת רכבת ראש העין צפון/רציפים,32.121176,34.934822
32052,תחנת רכבת ראש העין צפון/רציפים,32.121176,34.934822
32052,תחנת רכבת ראש העין צפון/רציפים,32.121176,34.934822
32052,תחנת רכבת ראש העין צפון/רציפים,32.121176,34.934822
37523,דרך אריאל שרון/כביש 444,32.110957,34.937612
38579,קאסם,32.105232,34.966865
20902,שד' ישראל גורי/דרך קיבוץ גלויות,32.046386,34.780691
21000,ביה''ח איכילוב/שד' דוד המלך,32.079787,34.787792
21005,ארלוזורוב/דיזנגוף,32.087073,34.774385
21022,ת. רכבת השלום,32.073483,34.791645
21023,ת. רכבת השלום,32.072666,34.79339
21024,לאונרדו דה וינצ'י/קפלן,32.073875,34.784808
21028,דרך השלום/יגאל אלון,32.071995,34.795651
21030,דרך השלום/דרך יצחק רבין,32.065178,34.803052
21031,דרך השלום/דרך יצחק רבין,32.065604,34.802729
21032,דרך השלום/המאבק,32.059083,34.809867
21033,דרך השלום/המאבק,32.05894,34.809636
21035,ארלוזורוב/דרך נמיר,32.08276,34.793207
21038,הוועד הפועל/ארלוזורוב,32.08473,34.78481
21043,ירקון/ויתקין,32.091854,34.773124
21068,ארלוזורוב/משה שרת,32.084075,34.787875
21078,בן יהודה/ז'בוטינסקי,32.08935,34.773724
21080,דרך השלום/תוצרת הארץ,32.071565,34.797751
21089,נמל תל אביב/הירקון,32.095145,34.774308
21090,בן יהודה/ירמיהו,32.094109,34.775142
21092,שד' לוי אשכול/דב האוזנר,32.109944,34.788905
21100,לונדון מיניסטור/שד' שאול המלך,32.075465,34.78282
21104,הירקון/ארלוזורוב,32.087939,34.771282
21107,שד' לוי אשכול/אינשטיין,32.111741,34.789253
21118,בית העלמין/דרך השלום,32.070419,34.801417
21119,דרך השלום/שדרות ההשכלה,32.071418,34.797494
21123,עיריית תל אביב-יפו/אבן גבירול,32.082493,34.781427
21126,ערבי נחל/בורוכוב,32.078332,34.800753
21127,אבן גבירול/פרופ' שור,32.089768,34.782735
21133,דרך השלום/דרך הטייסים,32.06176,34.804856
21134,דרך השלום/דרך הטייסים,32.062113,34.804298
21136,רבנות תל אביב/שד' דוד המלך,32.080036,34.784509
21139,ת. רכבת תל אביב סבידור/על פרשת דרכים,32.082475,34.795453
21140,ת. רכבת תל אביב סבידור/על פרשת דרכים,32.08224,34.795351
21150,לונדון מיניסטור/שד' שאול המלך,32.075664,34.782893
21155,ארלוזורוב/שלמה המלך,32.086039,34.778783
21163,מרכז הספורט/בכור שטרית,32.105868,34.820154
21173,ביה''ח איכילוב/ויצמן,32.080094,34.788557
21179,אלנבי/יהודה הלוי,32.061549,34.77366
21188,דרך נמיר/יהודה המכבי,32.095376,34.794137
21190,אורט סינגלובסקי/דרך הטייסים,32.058525,34.803997
21192,פרישמן/שלמה המלך,32.079549,34.777576
21194,דרך משה דיין/ההגנה,32.052456,34.799862
21199,קניון רמת אביב/ברודצקי,32.112327,34.797919
21206,בית המשפט/ויצמן,32.078598,34.788342
21209,לה גווארדייה/לוחמי גליפולי,32.059086,34.795294
21215,ביה''ס אלומות/רדינג,32.108371,34.79409
21216,רדינג/אשר ברש,32.109117,34.794712
21218,דרך הטייסים/עודד,32.054438,34.810845
21219,בית עלמין צבאי/משה סנה,32.128115,34.828144
21221,קריית הממשלה/דרך מנחם בגין,32.070648,34.78884
21226,יהודה הלוי/שיינקין,32.067083,34.779432
21227,קמפוס ברושים/שלום רוזנפלד,32.106714,34.802794
21234,שד' קק''ל/שלמה בן יוסף,32.122078,34.798889
21235,קמפוס ברושים/שלום רוזנפלד,32.106087,34.801005
21237,יצחק שדה/המסגר,32.065676,34.785302
21238,בית המשפט/ויצמן,32.078868,34.788581
21241,יהודה הלוי/נחלת בנימין,32.061662,34.771205
21243,החשמונאים/דרך מנחם בגין,32.069409,34.786788
21244,דרך מנחם בגין/הרכבת,32.063416,34.780072
21254,צומת חולון/דרך השיריון,32.038789,34.779755
21256,ת.מרכזית תל אביב קומה 6/רציפים,32.055908,34.779085
21264,לה גווארדייה/יגאל אלון,32.059304,34.790544
21265,דרך בר לב/דרך הטייסים,32.044958,34.8114
21270,מבצע קדש/ראול ולנברג,32.106557,34.827452
21273,שד' קק''ל/אופנהיימר,32.121636,34.80015
21274,מחלף לה גווארדייה,32.059454,34.786354
21277,דרך משה דיין/ההגנה,32.051417,34.8
21281,פארק וולפסון/דרך הטייסים,32.056367,34.806825
21282,דרך הטייסים/דרך בר לב,32.046202,34.813526
21286,דרך בר לב/אונטרמן,32.045863,34.804118
21287,דרך בר לב/שד' ששת הימים,32.045144,34.808098
21289,אסותא/יגאל אלון,32.069847,34.793808
21301,לה גווארדייה/הגיבור האלמוני,32.059183,34.798721
21303,בית הדר דפנה/שד' שאול המלך,32.077609,34.791101
21305,גן התקווה/דרך ההגנה,32.053625,34.794493
21307,ביה''ס נתיב/דרך ההגנה,32.053634,34.79721
21311,גן התקווה/דרך ההגנה,32.053834,34.793863
21315,קניון טי.אל.וי/החשמונאים,32.069583,34.784201
21316,החשמונאים/יהודה הלוי,32.06998,34.780607
21317,יגאל אלון/לה גווארדייה,32.059696,34.792069
21318,היכל הספורט/יגאל אלון,32.060644,34.791891
21324,יצחק שדה/שונצינו,32.065035,34.787877
21342,הרכבת/בני ברק,32.060522,34.781999
21356,ראול ולנברג/הנחושת,32.109949,34.837112
21357,ראול ולנברג/הארד,32.111693,34.838729
21358,ראול ולנברג/משמר הירדן,32.106733,34.830514
21366,כיכר דיזנגוף/דיזנגוף,32.078936,34.773907
21367,כיכר מסריק/פרישמן,32.079068,34.778823
21376,חברת החשמל/דרך מנחם בגין,32.061845,34.777575
21385,מכון התקנים/חיים לבנון,32.107651,34.801294
21387,חיים לבנון/ד''ר ג'ורג' וויז,32.110208,34.80153
21388,האוניברסיטה/חיים לבנון,32.113964,34.801289
21389,חיים לבנון/קלצ'קין,32.117801,34.801382
21394,חיים לבנון/קלצ'קין,32.119043,34.801869
21397,שד' רוטשילד/אלנבי,32.063554,34.773702
21398,יגאל אלון/דרך השלום,32.073136,34.794982
21399,יגאל אלון/עמק ברכה,32.07658,34.796208
21400,יגאל אלון/עמק ברכה,32.077451,34.796819
21401,יגאל אלון/ערבי נחל,32.078727,34.798278
21402,יגאל אלון/ערבי נחל,32.078797,34.79821
21406,יגאל אלון/יצחק שדה,32.064876,34.792274
21407,יגאל אלון/ההגנה,32.054622,34.791709
21413,יהודה הלוי/החשמונאים,32.069303,34.780756
21414,יהודה הלוי/נחמני,32.064609,34.777217
21415,דרך נמיר/יהודה המכבי,32.095157,34.794466
21421,ביה''ס ניב/יצחק שדה,32.063825,34.796455
21422,יצחק שדה/שונצינו,32.065133,34.787835
21423,חיים לבנון/רדינג,32.103428,34.795796
21426,דרך מנחם בגין/אלנבי,32.06059,34.775001
21433,פארק וולפסון/דרך הטייסים,32.056554,34.806935
21434,לה גווארדייה/יגאל אלון,32.059204,34.791053
21436,דרך בר לב/אונטרמן,32.046062,34.804024
21437,דרך בר לב/שד' ששת הימים,32.045205,34.808983
21438,לה גווארדייה/שער הגיא,32.059214,34.79378
21445,ת.רק''ל אלנבי,32.062167,34.773355
21446,עירוני ה'/בן יהודה,32.095047,34.775551
21451,מגדל שלום/אחד העם,32.063639,34.770359
21453,מגדל שלום/הרצל,32.063828,34.769838
21454,יגאל אלון/הפלמ''ח,32.062878,34.792016
21455,מגרשי הטניס/בכור שטרית,32.106365,34.816519
21457,היכל הספורט/יגאל אלון,32.061469,34.792128
21460,מוזאון ארץ ישראל/חיים לבנון,32.10372,34.797126
21461,איצטדיון הדר יוסף/בכור שטרית,32.106288,34.822207
21466,מרכז הספורט/בכור שטרית,32.106049,34.81943
21469,חיים לבנון/ד''ר ג'ורג' וויז,32.112104,34.80168
21472,קניון עזריאלי/דרך מנחם בגין,32.074592,34.790584
21479,ת. דלק פז למד/2040,32.128586,34.789441
21480,בית המשפט/שוקן,32.052027,34.772397
21481,קאנטרי שוק העלייה/העלייה,32.058329,34.773308
21482,הגדוד העברי/שד' הר ציון,32.058694,34.778725
21483,לוינסקי/העלייה,32.05907,34.774292
21484,שד' רוטשילד/בלפור,32.066146,34.777553
21486,מסוף הטייסים,32.048689,34.813804
21487,יגאל אלון/דרך השלום,32.071549,34.794118
21490,אלנבי/יהודה הלוי,32.061337,34.773616
21491,בית הכנסת הגדול/אלנבי,32.064694,34.772553
21496,דרך בן צבי/הרצל,32.044374,34.768679
21497,מכון הנפט/חיים לבנון,32.105529,34.799808
21498,מכון התקנים/חיים לבנון,32.107781,34.801125
21499,הגן הזואולוגי/הרצל,32.048142,34.769184
21502,דרך מנחם בגין/הגליל,32.061823,34.777831
21513,האוניברסיטה/חיים לבנון,32.112655,34.801364
21516,כיכר רבין/אבן גבירול,32.078796,34.781162
21518,יגאל אלון/קרמנצקי,32.067602,34.792921
21520,כיכר רבין/מלכי ישראל,32.0796,34.780657
21521,יגאל אלון/יצחק שדה,32.065464,34.792625
21525,בני אפרים/חנה רובינא,32.12048,34.819657
21530,דרך משה דיין/קרייתי,32.049334,34.799322
21531,דרך משה דיין/משה שטינשנידר,32.061938,34.799749
21532,דרך נמיר/שד' קק''ל,32.123132,34.794667
21533,פנחס רוזן/ראול ולנברג,32.107787,34.827298
21534,תיכון חדש רבין/דרך נמיר,32.090293,34.795303
21538,דרך בר לב/דרך משה דיין,32.046689,34.799899
21541,המלך ג'ורג'/שדרות בן ציון,32.073374,34.775094
21543,המלך ג'ורג'/בוגרשוב,32.07329,34.774835
21544,בית המשפט/שד' שאול המלך,32.076736,34.787868
21547,קלצ'קין/חיים לבנון,32.118007,34.802148
21551,שדרות הר ציון/דרך קיבוץ גלויות,32.049738,34.773631
21553,שד' הר ציון/דרך שלמה,32.054302,34.77526
21554,שד' הר ציון/וולפסון,32.056561,34.776495
21562,לונה פארק/שד' רוקח,32.105513,34.81257
21564,דרך נמיר/ז'בוטינסקי,32.086375,34.795493
21565,בני אפרים/מנורה,32.121877,34.821768
21572,דרך בר לב/צביה לובטקין,32.045785,34.805717
21574,דרך בר לב/דרך משה דיין,32.046839,34.800032
21577,קריית שלום/דרך בן צבי,32.041085,34.774263
21584,העלייה/פלורנטין,32.055762,34.772525
21586,הגן הזואולוגי/הרצל,32.047971,34.768941
21587,סינרמה/יצחק שדה,32.064589,34.791082
21588,סלומון/הרכבת,32.061639,34.780191
21590,דרך הטייסים/עודד,32.055332,34.809903
21592,צומת חולון/דרך בן צבי,32.039169,34.777451
21595,לה גווארדייה/דרך הטייסים,32.059319,34.80295
21602,אורט סינגלובסקי/דרך הטייסים,32.057317,34.805055
21609,חיל השריון/קיבוץ גלויות,32.04815,34.78452
21613,סמינר הקיבוצים/חיים לבנון,32.102795,34.793726
21615,דרך נמיר/פנקס,32.092013,34.795206
21617,צבי פרופס/שד' לוי אשכול,32.123423,34.790712
21618,קריית חינוך/שושנה פרסיץ,32.132998,34.796031
21625,יצחק שדה/המסגר,32.065354,34.785844
21626,דבורה הנביאה/ראול ולנברג,32.115126,34.840063
21635,עולי הגרדום/ניסן כהן,32.111576,34.835119
21655,דרך השלום/דרך הטייסים,32.060318,34.806529
21665,הפקולטה להנדסה/קלאוזנר,32.111325,34.807491
21669,קניון עזריאלי/דרך מנחם בגין,32.075726,34.791623
21672,קניון רמת אביב/ברודצקי,32.112531,34.797662
21675,קריית הממשלה/דרך מנחם בגין,32.07238,34.789654
21698,רדינג/ברודצקי,32.104603,34.794623
21699,ביה''ס אליאנס/רדינג,32.107227,34.794153
21700,ביה''ס אליאנס/רדינג,32.10653,34.794161
21701,רדינג/הברון הירש,32.10986,34.797792
21702,רדינג/הררי,32.104385,34.794434
21703,רדינג/אשר ברש,32.109569,34.795515
21705,מתחם מידטאון/דרך מנחם בגין,32.080071,34.795266
21714,שד' הר ציון/וולפסון,32.056807,34.776639
21716,שד' רוקח/בכור שטרית,32.107454,34.814433
21717,אקספו תל אביב/שד' רוקח,32.103834,34.809664
21718,ת. רכבת האוניברסיטה/שד' רוקח,32.102578,34.805312
21721,ת. רק''ל אלנבי/רוטשילד,32.064045,34.775308
21728,יגאל אלון/ההגנה,32.054767,34.791618
21729,החשמונאים/קרליבך,32.069472,34.783648
21732,שד' רוטשילד/שיינקין,32.068653,34.778387
21734,מדעי החיים/קלאוזנר,32.115503,34.807243
21750,מכון הנפט/חיים לבנון,32.105457,34.800019
21759,ת. דלק פז למד/2040,32.12793,34.788889
21761,שד' קק''ל/בני אפרים,32.118763,34.817443
21764,מתחם מידטאון/דרך מנחם בגין,32.079711,34.795103
21770,ויצמן/בארי,32.083212,34.788965
21815,ביה''ח איכילוב/ויצמן,32.080816,34.788879
21827,ראול ולנברג/הברזל,32.107031,34.833789
21828,מטה מרחב ירקון/ראול ולנברג,32.108001,34.835243
21829,ראול ולנברג/הנחושת,32.1097,34.837166
21830,ראול ולנברג/הארד,32.112816,34.839688
21831,מטה מרחב ירקון/ראול ולנברג,32.108777,34.835807
22028,בית ספר הולץ/חיל השריון,32.046238,34.783261
22555,שד' הר ציון/דרך קיבוץ גלויות,32.05078,34.77369
22556,בניין פנורמה/דרך בן צבי,32.042069,34.77215
22557,קריית שלום/דרך בן צבי,32.040173,34.775256
22919,לונה פארק/שד' רוקח,32.105529,34.812227
22920,נמל תל אביב/דיזינגוף,32.096871,34.775888
22930,דרך השלום/דרך הטייסים,32.060687,34.805644
22932,דרך משה דיין/דרך בר לב,32.047976,34.799321
22934,מחלף לה גווארדייה,32.059174,34.786171
22935,מסוף כרמלית,32.065805,34.765196
22939,יגאל אלון/שד' החי''ל,32.055943,34.791749
22947,המסגר/יד חרוצים,32.061845,34.784745
22951,קריית חינוך,32.136729,34.79759
22955,ת.מרכזית תל אביב קומה 7/רציפים,32.056413,34.779452
22983,אלנבי/שד' רוטשילד,32.062794,34.773273
22984,אלנבי/אחד העם,32.063839,34.772919
22985,אלנבי/מונטיפיורי,32.065866,34.772034
22986,הרכבת/סלומון,32.062567,34.780103
22988,אלנבי/מונטיפיורי,32.065619,34.772033
22989,שוק הכרמל/אלנבי,32.068606,34.770781
22990,אלנבי/גאולה,32.071397,34.769613
22998,דיזנגוף/בן יהודה,32.096302,34.775963
22999,בן יהודה/שד' נורדאו,32.093349,34.775016
23000,בן יהודה/ז'בוטינסקי,32.090003,34.774032
23009,שוק הכרמל/אלנבי,32.068872,34.770828
23012,כיכר מילאנו/אבן גבירול,32.093695,34.783492
23013,ת.מרכזית תל אביב קומה 7/הורדה,32.055636,34.780466
23014,קניון עזריאלי/דרך מנחם בגין,32.074453,34.791116
23016,המסגר/לה גווארדייה,32.059809,34.784515
23017,המסגר/ישראל טל,32.06366,34.78558
23018,אלנבי/בלפור,32.068112,34.771031
23019,אלנבי/ביאליק,32.070517,34.770191
23020,בית הכנסת הגדול/אלנבי,32.064609,34.772476
23021,אלנבי/מזא''ה,32.066605,34.771697
23023,לה גווארדייה/המעפילים,32.059392,34.788682
23025,בית המשפט/שד' שאול המלך,32.076734,34.788446
23074,אקספו תל אביב/שד' רוקח,32.104601,34.810684
24068,ת. רכבת תל אביב - סבידור/דרך נמיר,32.083482,34.795008
24090,ת. מרכזית תל אביב/לוינסקי,32.056456,34.780692
25069,דרך קיבוץ גלויות/כביש 1,32.046861,34.784605
25070,ת. מרכזית תל אביב/לוינסקי,32.05693,34.779058
25071,סמינר הקיבוצים/דרך נמיר,32.101886,34.792779
25075,הפקולטה להנדסה/ד''ר ג'ורג' וויז,32.109701,34.80702
25077,מוזאון ארץ ישראל/חיים לבנון,32.104164,34.797712
25141,דרך מנחם בגין/נחמני,32.064395,34.781449
25200,יפת/יוטבת,32.033815,34.745442
25201,יפת/יוטבת,32.033897,34.745942
25202,ביה''ס רעות/יפת,32.035253,34.747645
25203,יפת/אייזיק חריף,32.035768,34.748487
25204,יפת/הבעש''ט,32.037971,34.750164
25205,יפת/הבעש''ט,32.038092,34.75049
25206,ת.רק''ל מחרוזת/שד' ירושלים,32.032586,34.751588
25208,שד' ירושלים/מחרוזת,32.034456,34.751789
25209,ת.רק''ל מחרוזת,32.0339,34.752489
25210,ת.רק''ל מחרוזת,32.033789,34.752602
25211,שד' ירושלים/מחרוזת,32.034515,34.752164
25214,מחרוזת/פעמונית,32.033585,34.755628
25215,מחרוזת/פעמונית,32.033531,34.755396
25216,נרדור/מחרוזת,32.033997,34.757644
25217,מחרוזת/נרדור,32.033269,34.757858
25218,מרכז הטניס/הרב הלר,32.036217,34.755922
25222,הרב רובינשטיין/נרדור,32.035554,34.758256
25223,מחלף וולפסון/הרב רובינשטיין,32.035654,34.758623
25224,יפת/מנדס פראנס,32.041261,34.751546
25225,יפת/מנדס פראנס,32.042043,34.751605
25226,יפת/סייפן,32.044245,34.751917
25227,יפת/חייבי,32.044858,34.752277
25228,ד''ר ארליך/יפת,32.046579,34.753263
25233,ת.רק''ל הבעש''ט/שד' ירושלים,32.039599,34.756293
25236,שדרות ירושלים/וכטנגוב,32.043279,34.757596
25237,שדרות ירושלים/ד''ר ארליך,32.04444,34.757716
25244,היינריך היינה/שז''ר,32.039277,34.761688
25245,שז''ר/שקד,32.040295,34.762819
25246,שקד/גרינבוים,32.040637,34.763645
25247,ביה''ס שז''ר/שז''ר,32.039513,34.764004
25248,ביה''ס שז''ר/שז''ר,32.039372,34.76436
25249,שקד/גרינבוים,32.040384,34.764436
25250,נווה עופר/שז''ר,32.039137,34.766814
25251,נווה עופר/שז''ר,32.039067,34.766641
25252,גרינבוים/מאיר גרוסמן,32.041685,34.765609
25253,גרינבוים/מאיר גרוסמן,32.042014,34.765921
25254,מאיר גרוסמן/גרינבוים,32.041249,34.766193
25256,שז''ר/תל גיבורים,32.038694,34.768795
25257,שז''ר/תל גיבורים,32.038751,34.769089
25258,ביה''ס ברנר/מאיר גרוסמן,32.040799,34.767368
25260,תל גיבורים/שז''ר,32.039365,34.769639
25261,תל גיבורים/מאיר גרוסמן,32.039831,34.769533
25262,בנין פנורמה/תיאטרון ניקו ניתאי,32.040375,34.770306
25263,תל גיבורים/בית מעצר,32.042523,34.770392
25264,גרינבוים/דרך בן צבי,32.04452,34.767026
25265,גרינבוים/דרך בן צבי,32.044757,34.767557
25267,דרך בן צבי/הרצל,32.046268,34.767133
25271,הקשת/החרמש,32.042951,34.774046
25272,לבון/דרך בן צבי,32.043129,34.771773
25273,ת. רכבת צומת חולון/לוי אשכול,32.037502,34.777816
25276,שד' ישראל גורי/גיתית,32.041297,34.776101
25277,שד' ישראל גורי/גיתית,32.041226,34.776024
25278,שד' ישראל גורי/דיק,32.041431,34.778582
25279,שד' ישראל גורי/דיק,32.041603,34.779157
25280,הקשת/השופר,32.043928,34.776028
25281,קופ''ח כללית/שד' ישראל גורי,32.04361,34.780795
25282,קופ''ח כללית/שד' ישראל גורי,32.043761,34.780725
25284,שד' ישראל גורי/דרך קיבוץ גלויות,32.046747,34.780618
25287,גשר קיבוץ גלויות,32.046892,34.785506
25288,יפת/ד''ר ארליך,32.047706,34.752424
25291,יפת/ד''ר ארליך,32.047155,34.752583
25296,יפת/לואי פסטר,32.051606,34.752929
25301,שוק הפשפשים/יפת,32.054049,34.755347
25302,כיכר השעון,32.054967,34.756352
25303,כיכר השעון/מרזוק ועזר,32.05515,34.75753
25308,אצטדיון בלומפילד/דרך בן צבי,32.04974,34.761319
25318,דרך בן צבי/היינריך היינה,32.04902,34.76282
25320,מכון הרישוי/דרך בן צבי,32.047371,34.765682
25324,דרך שלמה/דרך קיבוץ גלויות,32.054536,34.763532
25329,בית האצ''ל/גולדמן,32.058253,34.758658
25331,מכון אבני/אילת,32.057252,34.76222
25332,מכון אבני/אילת,32.057159,34.761343
25333,מתחם התחנה/פרופ' קויפמן,32.059784,34.76046
25334,פרופ' קויפמן/שנקר,32.062428,34.761281
25335,ת.רק''ל אליפלט/אילת,32.058215,34.764793
25336,מרכז הטקסטיל/המרד,32.063276,34.763649
25337,מרכז הטקסטיל/פרופ' קויפמן,32.064293,34.762328
25338,גן צ'רלס קלור/פרופ' קויפמן,32.065708,34.762584
25340,המרד/פינס,32.065078,34.764763
25346,יצחק אלחנן/הכרמל,32.065425,34.765682
25349,מסוף כרמלית/הכרמל,32.065887,34.765513
25354,מסוף כרמלית/הכרמל,32.066363,34.766098
25358,מסוף כרמלית,32.066804,34.765902
25364,הכובשים/דניאל,32.068527,34.765534
25365,הירקון/עזרא הסופר,32.070195,34.764907
25372,דרך קיבוץ גלויות/אבולעפיה,32.05174,34.768304
25373,דרך קיבוץ גלויות/אבולעפיה,32.051983,34.768313
25374,דרך שלמה/בן עטר,32.054945,34.768637
25376,דרך שלמה/אבולעפיה,32.054789,34.769417
25380,בית המשפט/שוקן,32.051643,34.772093
25381,שוקן/דרך שלמה,32.053926,34.77228
25383,דרך שלמה/שד' הר ציון,32.055015,34.774632
25384,אילת/שלוש,32.0595,34.767013
25385,אילת/שלוש,32.059499,34.767261
25387,דרך יפו/הרצל,32.060121,34.769134
25390,העלייה/פלורנטין,32.055502,34.772518
25392,העלייה/פרנקל,32.056572,34.772942
25393,העלייה/וולפסון,32.058552,34.773475
25394,שוק לוינסקי/העלייה,32.059065,34.773499
25402,לוינסקי/העלייה,32.059067,34.774542
25403,דרך יפו/נחלת בנימין,32.060644,34.771841
25405,דרך יפו/נחלת בנימין,32.060725,34.771973
25407,שד' רוטשילד/אלנבי,32.063137,34.772146
25409,אלנבי/דרך מנחם בגין,32.061256,34.773752
25414,ת.רק''ל אלנבי,32.062451,34.773373
25420,אלנבי/שד' רוטשילד,32.06292,34.77313
25423,מסילת ישרים/דרך קיבוץ גלויות,32.049176,34.776124
25424,מסילת ישרים/דרך קיבוץ גלויות,32.049436,34.776098
25425,דרך קיבוץ גלויות/חכמי לובלין,32.047806,34.777936
25426,דרך קיבוץ גלויות/חכמי לובלין,32.047872,34.778574
25427,מסילת ישרים/חכמי ישראל,32.051271,34.776791
25428,מסילת ישרים/חכמי ישראל,32.05153,34.776758
25429,דרך שלמה/מסילת ישרים,32.054745,34.77648
25430,דרך שלמה/מסילת ישרים,32.054581,34.776478
25437,לוינסקי/שד' הר ציון,32.058193,34.776516
25439,ת.מרכזית תל אביב קומה 7/רציפים,32.056141,34.779261
25440,לוינסקי/שד' הר ציון,32.05758,34.777575
25441,לוינסקי/שד' הר ציון,32.057502,34.778232
25454,הרכבת/דרך מנחם בגין,32.063377,34.778495
25476,לוינסקי/לבנדה,32.055734,34.781771
25477,ת. מרכזית תל אביב/לוינסקי,32.055937,34.781939
25478,ראש פינה/הרכבת,32.058653,34.782159
25485,מגדל שלום/מונטיפיורי,32.064693,34.769228
25486,מגדל שלום/גרוזנברג,32.065282,34.768985
25508,אלנבי/מונטיפיורי,32.066114,34.771809
25512,אלנבי/מזא''ה,32.067357,34.771253
25514,אלנבי/מזא''ה,32.067539,34.771291
25524,ביה''ס בלפור/בלפור,32.068107,34.772551
25525,גינת שינקין/שינקין,32.069172,34.7735
25527,הכובשים/אלנבי,32.072597,34.767787
25542,פינסקר/אלנבי,32.073167,34.769007
25543,טרומפלדור/פינסקר,32.075167,34.770528
25552,בוגרשוב/פינסקר,32.076306,34.770873
25554,בוגרשוב/בר כוכבא,32.075334,34.772915
25556,המלך ג'ורג'/רש''י,32.071897,34.773361
25557,גן מאיר/המלך ג'ורג',32.071704,34.77327
25564,דיזנגוף סנטר/טשרניחובסקי,32.075585,34.773887
25565,דיזנגוף סנטר/דיזנגוף,32.075129,34.77537
25566,כיכר דיזנגוף/פינסקר,32.077087,34.773089
25575,כיכר דיזנגוף/ריינס,32.07895,34.77495
25578,שד' רוטשילד/נחמני,32.064942,34.776104
25579,בלפור/מלצ'ט,32.067159,34.775903
25582,שד' רוטשילד/מזא''ה,32.06567,34.777286
25584,שד' רוטשילד/בלפור,32.066128,34.77721
25586,שיינקין/פיארברג,32.068444,34.776696
25587,שד' רוטשילד/שיינקין,32.0685,34.777966
25590,שד' רוטשילד/חשמונאים,32.070732,34.779052
25591,הבימה/שד' רוטשילד,32.071059,34.779155
25592,הבימה/שד' רוטשילד,32.071428,34.778882
25604,קרליבך/הארבעה,32.070456,34.782571
25607,דיזנגוף סנטר/שדרות בן ציון,32.073814,34.776007
25608,דיזנגוף סנטר/שדרות בן ציון,32.073756,34.775586
25609,דיזנגוף סנטר/דיזנגוף,32.075566,34.77512
25612,הבימה/שד' בן ציון,32.072438,34.77812
25614,היכל התרבות/דיזנגוף,32.074359,34.778231
25615,הבימה/שד' תרס''ט,32.073638,34.778812
25616,פרישמן/שלמה המלך,32.079679,34.776668
25617,המלך ג'ורג'/זמנהוף,32.076897,34.777315
25618,המלך ג'ורג'/זמנהוף,32.07709,34.777593
25619,כיכר מסריק/המלך ג'ורג',32.077639,34.778033
25621,הבימה/שד' בן ציון,32.07188,34.779715
25622,היכל התרבות/דיזנגוף,32.073958,34.779383
25624,אבן גבירול/דיזנגוף,32.072776,34.781698
25625,לונדון מיניסטור/אבן גבירול,32.074469,34.781836
25629,כיכר רבין/מלכי ישראל,32.079416,34.780372
25631,אבן גבירול/השופטים,32.076487,34.781586
25632,אבן גבירול/השופטים,32.076684,34.781314
25634,אבן גבירול/מאנה,32.078178,34.781166
25636,ת. רכבת ההגנה/החרש,32.054639,34.783438
25637,ת.רכבת ההגנה,32.054782,34.783919
25638,ת.רכבת ההגנה,32.05496,34.784028
25639,לח''י/דרך קיבוץ גלויות,32.047314,34.790168
25640,לח''י/דרך קיבוץ גלויות,32.047452,34.790689
25641,דרך ההגנה/המעפילים,32.054146,34.787909
25642,דרך ההגנה/המעפילים,32.054313,34.787996
25643,שוק התקווה/אצ''ל,32.052962,34.791348
25644,שוק התקווה/דרך ההגנה,32.053996,34.789975
25645,שוק התקווה/אצ''ל,32.053436,34.791288
25655,לה גווארדייה/המעפילים,32.059237,34.788815
25660,אצ''ל/לח''י,32.048019,34.793353
25661,אצ''ל/לח''י,32.048306,34.793219
25662,אצ''ל/חנוך,32.050613,34.791725
25663,אצ''ל/חנוך,32.051239,34.791655
25668,שכונת הארגזים/לח''י,32.047557,34.79592
25669,שכונת הארגזים/לח''י,32.047282,34.796587
25670,קרייתי/גבעתי,32.050499,34.796292
25671,גבעתי/קרייתי,32.051111,34.796175
25673,דרך משה דיין/דרך בר לב,32.048129,34.799102
25674,קרייתי/דרך משה דיין,32.050125,34.798391
25675,קרייתי/דרך משה דיין,32.050299,34.797943
25677,גבעתי/ההגנה,32.052728,34.796187
25678,גבעתי/ההגנה,32.052854,34.796303
25682,יגאל אלון/שד' החי''ל,32.057022,34.791929
25683,יגאל אלון/לה גווארדייה,32.058255,34.791868
25693,לה גווארדייה/הגיבור האלמוני,32.059086,34.798466
25695,דרך משה דיין/הרכבי,32.063125,34.799609
25702,המסגר/ריב''ל,32.062018,34.785025
25720,לסקוב/הפטמן,32.072431,34.783268
25721,דובנוב/קפלן,32.074017,34.783511
25722,האופרה/שד' שאול המלך,32.075623,34.784789
25732,בית הדר דפנה/שד' שאול המלך,32.077723,34.790819
25735,יצחק שדה/יגאל אלון,32.06405,34.792948
25740,ביה''ס ניב/יצחק שדה,32.064025,34.796565
25742,דרך משה דיין/יצחק שדה,32.063615,34.799149
25743,דרך משה דיין/יצחק שדה,32.064669,34.799124
25744,ביה''ס בלוך/דרך משה דיין,32.065827,34.798705
25746,רמת ישראל/דרך משה דיין,32.068221,34.79878
25747,רמת ישראל/דרך משה דיין,32.068599,34.799133
25749,דרך משה דיין/דרך השלום,32.069794,34.799241
25750,דרך משה דיין/דרך השלום,32.070087,34.799666
25761,מגדלי תל אביב/נחלת יצחק,32.074579,34.798057
25764,עמק ברכה/בנימיני,32.076216,34.798903
25767,חוף גורדון,32.082345,34.768191
25774,דיזנגוף/פרישמן,32.080952,34.773763
25778,דיזנגוף/ש''ץ,32.08366,34.774083
25786,שד' בן גוריון/דיזנגוף,32.083995,34.775011
25787,דיזנגוף/יודפת,32.085415,34.774508
25794,דיזנגוף/ארלוזורוב,32.086259,34.774822
25800,בן יהודה/שדרות נורדאו,32.092115,34.774536
25801,הירקון/שד' נורדאו,32.092146,34.773014
25803,נמל תל אביב/הירקון,32.095964,34.774431
25805,ריינס/גורדון,32.081909,34.775838
25809,שד' בן גוריון/שלמה המלך,32.082334,34.778572
25812,דיזנגוף/ארלוזורוב,32.087957,34.775256
25813,ביה''ס גרץ/מאנגר,32.08549,34.777194
25818,עיריית תל אביב - יפו/אבן גבירול,32.081798,34.781421
25819,שד' דוד המלך/אבן גבירול,32.080303,34.78247
25820,עיריית תל אביב - יפו/בלוך,32.081605,34.782285
25821,עיריית תל אביב - יפו/בלוך,32.081832,34.78263
25823,עיריית תל אביב - יפו/אבן גבירול,32.082914,34.781176
25830,דיזנגוף/ז'בוטינסקי,32.088826,34.775357
25831,ז'בוטינסקי/דיזנגוף,32.089066,34.776546
25832,דיזנגוף/ז'בוטינסקי,32.089631,34.77566
25833,דיזנגוף/בזל,32.091443,34.776014
25835,ז'בוטינסקי/ארבע ארצות,32.088678,34.778994
25836,שד' נורדאו/סוקולוב,32.092273,34.779074
25839,שדרות נורדאו/דיזנגוף,32.092224,34.776753
25840,דיזנגוף/שד' נורדאו,32.093287,34.776572
25841,דיזנגוף/שד' נורדאו,32.093454,34.776506
25847,שד' נורדאו/יהושע בן נון,32.091847,34.78082
25848,ז'בוטינסקי/אבן גבירול,32.088285,34.781185
25851,שד' נורדאו/יהושע בן נון,32.092012,34.781561
25852,אבן גבירול/פנקס,32.090246,34.782604
25867,מסוף רדינג/הורדה,32.098973,34.778771
25868,אבן גבירול/שד' רוקח,32.09938,34.782769
25870,ש''י עגנון/אבן גבירול,32.101969,34.782974
25872,רבנות תל אביב/שד' דוד המלך,32.080103,34.784906
25875,בלוך/ארלוזורוב,32.084139,34.785504
25876,ארלוזורוב/בלוך,32.084226,34.786407
25877,גימנסיה הרצליה/ז'בוטינסקי,32.087558,34.784929
25878,גימנסיה הרצליה/ז'בוטינסקי,32.087572,34.785904
25882,ארלוזורוב/ויצמן,32.083353,34.790102
25886,כיכר המדינה/תש''ח,32.0857,34.788878
25887,כיכר המדינה/ויצמן,32.084855,34.78948
25888,כיכר המדינה/וייצמן,32.088024,34.789598
25890,פנקס/רמז,32.090827,34.786229
25893,כיכר מילאנו/אבן גבירול,32.094159,34.783364
25894,כיכר מילאנו/דה האז,32.093673,34.78459
25896,יהודה המכבי/מתתיהו,32.093807,34.786018
25897,בית החייל/ויצמן,32.090607,34.790476
25898,בית החייל/ויצמן,32.09063,34.790677
25899,ויצמן/פנקס,32.091496,34.790662
25900,ביה''ס עירוני י''א/יהודה המכבי,32.093734,34.78823
25902,יהודה המכבי/ויצמן,32.093831,34.789004
25903,ארלוזורוב/דרך נמיר,32.082984,34.792922
25913,ז'בוטינסקי/כיכר המדינה,32.0864,34.792221
25914,ז'בוטינסקי/דרך נמיר,32.0863,34.791702
25937,ת. רכבת תל אביב - סבידור/חנה וסע,32.083783,34.7956
25938,פנקס/דרך נמיר,32.091325,34.794216
25939,פנקס/דרך נמיר,32.091092,34.79436
25942,יהודה המכבי/דרך נמיר,32.094067,34.792836
25943,יהודה המכבי/דרך נמיר,32.094212,34.793079
25948,הרב הרצוג/הזוהר,32.095288,34.797115
25949,הרב הרצוג/הזוהר,32.095035,34.796248
25950,הרב הרצוג/בבלי,32.095304,34.798421
25951,ש''י עגנון/ישראל גלילי,32.102346,34.783987
25952,ש''י עגנון/שד' לוי אשכול,32.102523,34.786844
25953,ספורטק/שד' רוקח,32.09861,34.78494
25954,ש''י עגנון/שד' לוי אשכול,32.102858,34.788004
25955,שדרות לוי אשכול/ש''י עגנון,32.103945,34.788631
25956,שדרות לוי אשכול/ש''י עגנון,32.103923,34.788945
25957,שד' לוי אשכול/אפטר,32.10672,34.788583
25958,אפטר/יהודה בורלא,32.105056,34.790152
25959,ביה''ס ארן/יהודה בורלא,32.106765,34.790707
25960,שד' לוי אשכול/דב האוזנר,32.10985,34.789188
25961,ביה''ס ארן/יהודה בורלא,32.108998,34.790567
25962,יהודה בורלא/דב האוזנר,32.1096,34.79071
25963,אינשטיין/שד' לוי אשכול,32.112225,34.790086
25964,שד' רוקח/דרך נמיר,32.100026,34.794904
25970,שד' רוקח/דרך נמיר,32.100547,34.796071
25971,בבלי/הכנסת הגדולה,32.09712,34.798081
25972,הרב קוסובסקי/בבלי,32.098062,34.797904
25973,תוספתא/ירושלמי,32.096607,34.799045
25974,הכנסת הגדולה/תוספתא,32.09776,34.79889
25978,מגרשי הטניס/שד' רוקח,32.100871,34.79767
25988,ברודצקי/סלואדור,32.10596,34.796903
25989,בית ברודצקי/ברודצקי,32.107905,34.79843
25990,בית ברודצקי/ברודצקי,32.108097,34.798322
25992,ברודצקי/רדינג,32.109531,34.798459
25993,ברודצקי/רדינג,32.109556,34.798349
25995,ברודצקי/רדינג,32.110322,34.798129
26004,צביה לובטקין/צוקרמן,32.046108,34.806428
26005,צביה לובטקין/צוקרמן,32.046937,34.806857
26009,שד' ששת הימים/דרך בר לב,32.045794,34.809878
26018,דרך משה דיין/צבי נשרי,32.054703,34.800345
26019,דרך משה דיין/צבי נשרי,32.055144,34.800093
26020,בית ברבור/דרך ההגנה,32.053444,34.80164
26022,בית ברבור/דרך ההגנה,32.053361,34.802179
26024,אסא קדמוני/הרב יוסף צוברי,32.050985,34.805331
26025,אסא קדמוני/הרב יוסף צוברי,32.050996,34.805222
26026,ביה''ס בעש''ט/צביה לובטקין,32.049237,34.80667
26027,ביה''ס בעש''ט/צביה לובטקין,32.048677,34.807263
26028,הרב אלנקווה/אסא קדמוני,32.053204,34.804423
26029,הרב אלנקווה/אסא קדמוני,32.05355,34.804585
26030,דרך משה דיין/לה גווארדייה,32.057897,34.800537
26031,דרך משה דיין/לה גווארדייה,32.058606,34.800238
26035,דרך משה דיין/משה שטינשנידר,32.061547,34.800182
26042,דרך הטייסים/דרך השלום,32.060311,34.804092
26051,שד' ששת הימים/תקוע,32.04764,34.809963
26052,שד' ששת הימים/תקוע,32.047742,34.810171
26053,מח''ל/שד' ששת הימים,32.049149,34.810483
26054,מח''ל/מעפילי אגוז,32.049461,34.811458
26055,מעפילי אגוז/מח''ל,32.050829,34.811691
26056,ביה''ס תל חי/מעפילי אגוז,32.053866,34.809811
26063,מח''ל/מעפילי אגוז,32.049377,34.812225
26070,עודד/אלוף דוד,32.056774,34.811377
26089,דרך השלום/חביבה רייק,32.069918,34.802079
26099,נחלת יצחק/עליית הנוער,32.07381,34.800651
26294,שטיינמן/הרב קוסובסקי,32.098215,34.800718
26295,הרב קוסובסקי/שטיינמן,32.098737,34.80028
26296,מרכז רבין/שד' רוקח,32.101156,34.800011
26298,קאנטרי דקל,32.09674,34.804011
26302,ת. רכבת האוניברסיטה/שד' רוקח,32.102783,34.80697
26312,האוניברסיטה/חיים לבנון,32.112554,34.801646
26313,ת. רכבת אוניברסיטה/איסוף,32.104859,34.803889
26314,ת. רכבת אוניברסיטה/הורדה,32.104786,34.804264
26323,בני אפרים/בכור שטרית,32.108515,34.815587
26423,שלום אש/קהילת ורשה,32.108224,34.819681
26424,בני אפרים/הדר יוסף,32.110352,34.81622
26425,הדר יוסף/בני אפרים,32.110376,34.817416
26426,בני אפרים/הדר יוסף,32.111508,34.816744
26427,מכללת אפקה/בני אפרים,32.112324,34.816536
26428,הדר יוסף/קהילת ורשה,32.109673,34.818831
26429,הדר יוסף/קהילת ורשה,32.108838,34.819316
26432,שלום אש/קיציס,32.106877,34.821139
26434,איצטדיון הדר יוסף/בכור שטרית,32.106236,34.823049
26435,קהילת ורשה/שלום אש,32.108522,34.8203
26436,קהילת יאסי/קהילת ורשה,32.110142,34.822846
26445,יד המעביר/קהילת יאסי,32.109558,34.824644
26446,קהילת יאסי/פנחס רוזן,32.110121,34.825403
26448,פנחס רוזן/מבצע קדש,32.111251,34.825646
26450,פנחס רוזן/מבצע קדש,32.111225,34.825429
26451,אשכנזי/פנחס רוזן,32.109364,34.827197
26452,בנימין מטודלה/אבן ספיר,32.111657,34.826354
26454,ראול ולנברג/משמר הירדן,32.106866,34.83096
26455,הרוגי מלכות/משמר הירדן,32.110146,34.831821
26456,הרוגי מלכות/משמר הירדן,32.109992,34.832249
26457,משמר הירדן/הרוגי מלכות,32.111196,34.831876
26595,ראול ולנברג/הברזל,32.1068,34.832216
26600,הרוגי מלכות/עולי הגרדום,32.109434,34.83298
26601,עולי הגרדום/בי''ס ישגב,32.109388,34.83387
26603,עולי הגרדום/הרוגי מלכות,32.11009,34.834577
26605,עולי הגרדום/ניסן כהן,32.111191,34.835061
26618,שד' לוי אשכול/זריצקי,32.114288,34.789734
26619,שד' לוי אשכול/זריצקי,32.115205,34.790207
26620,שד' לוי אשכול/רודנסקי,32.120267,34.790886
26621,שד' לוי אשכול/רודנסקי,32.121124,34.791321
26623,צבי פרופס/שד' לוי אשכול,32.123186,34.790766
26627,ביה''ס יחדיו/יהודה הנשיא,32.115696,34.794792
26628,קאנטרי נווה אביבים/יהודה הנשיא,32.118773,34.795283
26629,קאנטרי נווה אביבים/יהודה הנשיא,32.119435,34.795501
26630,טאגור/אנדרסן,32.114106,34.795905
26631,קניון רמת אביב/אינשטיין,32.112891,34.797161
26632,קניון רמת אביב/אינשטיין,32.113103,34.79716
26635,אינשטיין/אהרון בארט,32.113309,34.799561
26637,רב אשי/ד''ר שמשון צ'רטוק,32.120862,34.798745
26638,רב אשי/ד''ר שמשון צ'רטוק,32.120749,34.798898
26639,קדושי השואה/צבי פרופס,32.124652,34.791779
26642,קדושי השואה/צבי פרופס,32.125722,34.792227
26643,מסוף אזורי חן,32.128509,34.792217
26646,שד' קק''ל/שלמה בן יוסף,32.122384,34.79566
26648,שלמה בן יוסף/שד' קק''ל,32.123339,34.797671
26649,שלמה בן יוסף/אבא אחימאיר,32.124059,34.797914
26650,אבא אחימאיר/שלמה בן יוסף,32.125048,34.798707
26656,קריית חינוך/שושנה פרסיץ,32.132841,34.796066
26659,קריית חינוך,32.137236,34.797798
26662,סי אנד סאן/רוזנבלום,32.138057,34.791301
26674,גן יוסף פוליטי/אופנהיימר,32.119709,34.800288
26675,גן יוסף פוליטי/אופנהיימר,32.119946,34.800117
26677,חיים לבנון/קלצ'קין,32.118624,34.801564
26682,מסוף אוניברסיטת ת''א ,32.117204,34.804116
26683,מסוף אוניברסיטת ת''א/הורדה,32.117233,34.804011
26688,אבא אחימאיר/אליהו בית צורי,32.124818,34.799838
26689,רקנאטי/שד' קק''ל,32.122109,34.802242
26691,רקנאטי/שד' קק''ל,32.122942,34.802615
26692,מרכז שוסטר/אבא אחימאיר,32.124862,34.802224
26693,מרכז שוסטר/אבא אחימאיר,32.124679,34.802192
26695,אפקה/שד' קק''ל,32.119794,34.807975
26696,מחלף קק''ל/שד' קק''ל,32.118888,34.811819
26702,מכללת אפקה/בני אפרים,32.114162,34.817041
26703,ביה''ס עמל/בני אפרים,32.115783,34.817064
26704,ביה''ס עמל/בני אפרים,32.116186,34.817501
26707,בני אפרים/שד' קק''ל,32.117935,34.81792
26708,שלונסקי/בני אפרים,32.117654,34.819701
26709,שלונסקי/בני אפרים,32.117871,34.819709
26710,בני אפרים/חנה רובינא,32.12027,34.819801
26712,שלונסקי/קהילת ונציה,32.116311,34.822833
26713,שלונסקי/קהילת ונציה,32.116082,34.824143
26714,בני אפרים/מנורה,32.121512,34.821577
26716,בית העלמין/קרית שאול,32.126874,34.821244
26718,פתחיה מרגנשבורג/פנחס רוזן,32.113971,34.825928
26721,שמואל רומנילי/בנימין מטודלה,32.112939,34.827943
26724,דבורה הנביאה/משה סנה,32.118728,34.825926
26725,פתחיה מרגנשבורג/זאב רכטר,32.114423,34.829113
26726,פתחיה מרגנשבורג/ישראל אשכנזי,32.114736,34.831432
26727,דבורה הנביאה/מתתיהו שוהם,32.118917,34.828782
26732,צה''ל/משה סנה,32.1223,34.826654
26734,ביה''ס און/ויסבורג,32.122666,34.829087
26735,ביה''ס און/ויסבורג,32.122603,34.829244
26736,צה''ל/המצביאים,32.123086,34.832027
26737,צה''ל/המצביאים,32.123151,34.832209
26740,בית העלמין/קרית שאול,32.129537,34.820267
26774,משמר הירדן/מרכוס,32.114195,34.832962
26775,מרכוס/משמר הירדן,32.114415,34.833655
26776,מרכוס/משמר הירדן,32.114305,34.83374
26777,עולי הגרדום/מרכוס,32.113051,34.836287
26779,מרכוס/עולי הגרדום,32.113775,34.836
26780,מרכוס/עולי הגרדום,32.113713,34.835896
26781,דבורה הנביאה/משמר הירדן,32.118677,34.832636
26782,משמר הירדן/דבורה הנביאה,32.117212,34.833971
26783,משמר הירדן/דבורה הנביאה,32.117596,34.834004
26784,דבורה הנביאה/משמר הירדן,32.11891,34.834075
26785,דבורה הנביאה/צה''ל,32.11866,34.836378
26790,דבורה הנביאה/ראול ולנברג,32.115365,34.839416
26795,דבורה הנביאה/צה''ל,32.118723,34.836676
26797,דבורה הנביאה/בית אל,32.117441,34.837791
26798,בית אל/דבורה הנביאה,32.117775,34.838247
26799,בית אל/דבורה הנביאה,32.117921,34.838153
26802,הצנחנים/אח''י דקר,32.118462,34.839229
26804,צה''ל/יהונתן,32.121234,34.834832
26805,צה''ל/יהונתן,32.12135,34.834863
26806,מסוף עתידים,32.114226,34.841355
26807,מסוף עתידים,32.113359,34.842539
26808,ביה''ס משה שרת/הצנחנים,32.116771,34.840383
26956,מסוף כרמלית/הורדה,32.067287,34.765823
26957,מסוף כרמלית,32.067294,34.765425
26959,כרמלית,32.067544,34.765253
26961,מסוף כרמלית,32.067589,34.765119
26963,מסוף כרמלית,32.067628,34.765001
26967,ראש פינה/הגדוד העברי,32.057814,34.77997
26970,בני אפרים/שד' קק''ל,32.117546,34.818048
26987,דרך יפו/הרצל,32.060284,34.769402
27005,מתחם שרונה/אליעזר קפלן,32.073253,34.786797
27010,ת. רכבת תל אביב - סבידור/על פרשת דרכים,32.081153,34.797682
27035,דרך שלמה/אליפלט,32.054923,34.766208
27050,דרך ההגנה/גבעתי,32.053486,34.796774
27065,האוניברסיטה/חיים לבנון,32.113879,34.801548
27069,שד' קק''ל/חיים לבנון,32.121331,34.803432
27070,שדרות קק''ל/חיים לבנון,32.121209,34.802838
27071,מחלף קק''ל/שד' קק''ל,32.119046,34.812357
27072,שד' קק''ל/בני אפרים,32.11866,34.816732
27086,כרמלית,32.067326,34.764907
27117,הרכבת/סלומון,32.061644,34.780784
27228,אלנבי/בלפור,32.067978,34.770974
27246,דיזנגוף/בן יהודה,32.096391,34.776059
27257,סינרמה/יצחק שדה,32.064494,34.79044
28538,מרכז הטקסטיל/המרד,32.063189,34.763501
28539,המרד/פינס,32.06448,34.764104
28542,אסותא/הסוללים,32.070435,34.795579
28543,וילנסקי/לוין קיפניס,32.128076,34.832253
28544,אלי תבין/וילנסקי,32.12789,34.829263
28545,סשה ארגוב/לוין קיפניס,32.126216,34.831077
28555,צה''ל/משה סנה,32.122071,34.825528
28559,שד' הר ציון/וולפסון,32.056949,34.776436
28563,משמר הירדן/טורקוב,32.108637,34.830034
28564,משמר הירדן/טורקוב,32.10796,34.830145
28566,היינריך היינה/נס לגויים,32.04382,34.762307
28574,עליית הנוער/נחלת יצחק,32.073374,34.800715
28576,פנקס/דה האז,32.091009,34.786276
28581,מתחם שרונה/אליעזר קפלן,32.073491,34.787018
28582,ביה''ס יחדיו/יהודה הנשיא,32.115774,34.794701
28587,העלייה/וולפסון,32.057755,34.773261
28594,שמחה הולצברג/אייזיק חריף,32.031153,34.746821
28596,אבן גבירול/שד' רוקח,32.09801,34.783417
28611,שד' חכמי ישראל/שד' חכמי לובלין,32.050182,34.779564
28612,שד' חכמי ישראל/שד' חכמי לובלין,32.050296,34.779518
28616,מחלף לה גווארדייה/וינגייט,32.060063,34.78717
28624,ת.מרכזית תל אביב קומה 6/רציפים,32.056487,34.779648
28625,ת.מרכזית תל אביב קומה 7/רציפים,32.054886,34.780031
28627,ת.מרכזית תל אביב קומה 6/הורדה,32.055512,34.780335
31182,פארק מדרון יפו/נמל יפו,32.048213,34.748414
31183,פארק מדרון יפו/נמל יפו,32.048305,34.748439
31184,נמל יפו/יהודה הימית,32.051821,34.75027
31186,נמל יפו/יהודה הימית,32.052191,34.750338
36230,שד' ירושלים/שמחה הולצברג,32.029896,34.750499
36231,שד' ירושלים/שמחה הולצברג,32.03012,34.75029
37348,סמינר הקיבוצים/ש''י עגנון,32.103067,34.792115
20001,ת. רכבת תל אביב- סבידור/רציפים A,32.083157,34.796089
20004,המסגר/יד חרוצים,32.061291,34.784847
20021,דרך קיבוץ גלויות/חיל השריון,32.047221,34.782598
20023,ביה''ס חסן ערפה/אבן סינא,32.046829,34.749594
20026,המסגר/התעשייה,32.066996,34.786971
20027,ת.רק''ל ארליך,32.04589,34.756904
20028,קדם/מנדס פראנס,32.042831,34.747448
20042,יהודה מרגוזה/יפת,32.050722,34.752075
20043,באסולה/פתחיה מרגנשבורג,32.114421,34.830446
20046,ת.רק''ל ארליך,32.045779,34.756969
20047,דרך נמיר/אינשטיין,32.111697,34.792204
20048,ד''ר ארליך/יפת,32.046642,34.753423
20050,סמינר הקיבוצים/דרך נמיר,32.103962,34.792661
20051,דרך נמיר/אינשטיין,32.113247,34.792778
20052,ביה''ס חסן ערפה/קדם,32.04579,34.748716
20064,דרך נמיר/שד' קק''ל,32.12212,34.794165
20096,מכללת לוינסקי/דרך נמיר,32.136871,34.798587
20099,קריית החינוך/דרך נמיר,32.132818,34.796381
20103,עירוני י''ב/טולוז,32.040335,34.74847
20104,שד' קק''ל/שלמה בן יוסף,32.122465,34.796594
20105,מכללת לוינסקי/דרך נמיר,32.136707,34.798164
20107,קדם/אסף הרופא,32.039813,34.746738
20110,מרכז פרס לשלום/3178,32.038086,34.747189
20112,מחלף גלילות/דרך נמיר,32.140196,34.800766
20116,יפת/נגיב מחפוז,32.036768,34.749216
20137,מוזאון העם היהודי/קלאוזנר,32.113359,34.80742
20138,מוזאון העם היהודי/קלאוזנר,32.114014,34.807461
20141,ולנסיה/מענית,32.043254,34.748586
20170,מרכז פרס לשלום/3178,32.03797,34.746976
20187,פנחס רוזן/אשכנזי,32.109521,34.82657
20195,משה סנה/בני אפרים,32.125059,34.825068
20203,יהודה מרגוזה/יפת,32.050729,34.752384
20266,משה סנה/צה''ל,32.121629,34.824909
20277,מסוף רדינג/רציפים,32.098781,34.779474
20287,דרך נמיר/הרב הרצוג,32.093785,34.794793
20299,פנחס רוזן/שלונסקי,32.114749,34.825525
20300,משה סנה/דבורה הנביאה,32.119376,34.825466
20301,משה סנה/צה''ל,32.121348,34.82524
20302,משה סנה/בני אפרים,32.124779,34.825126
20304,פנחס רוזן/קהילת יאסי,32.109931,34.826079
20305,פנחס רוזן/שלונסקי,32.115062,34.8253
20306,פנחס רוזן/דבורה הנביאה,32.118401,34.825268
20335,לה גווארדייה/דרך הטייסים,32.059179,34.801864
20347,דרך נמיר/יהודה המכבי,32.093781,34.794543
20348,דרך נמיר/ז'בוטינסקי,32.085267,34.795006
20349,ת. רכבת תל אביב - סבידור/דרך נמיר,32.081367,34.794199
20353,ת. רכבת ההגנה/החרש,32.055692,34.783286
20356,המסגר/המלאכה,32.066289,34.786744
20358,שבטי ישראל/לייב בן שרה,32.043793,34.75333
20359,שבטי ישראל/ד''ר ארליך,32.045899,34.755051
20361,לונדון מיניסטור/אבן גבירול,32.075104,34.781574
20364,דיזנגוף/יודפת,32.085447,34.774625
20380,הרצל/דרך בן צבי,32.046238,34.768771
20381,שבטי ישראל/ד''ר ארליך,32.045856,34.754893
20382,שבטי ישראל/בן שרה,32.044072,34.753431
20386,הרצל/התחייה,32.048483,34.769025
20388,שוקן/דרך שלמה,32.054131,34.772082
20389,שוקן/דרך קיבוץ גלויות,32.051118,34.771742
20390,לה גווארדייה/שער הגיא,32.059152,34.792881
20396,אפקה/שד' קק''ל,32.120097,34.807805
20482,ביה''ס לרפואה/קלצ'קין,32.117386,34.805957
20496,שד' ירושלים/הגיבורים,32.031351,34.751313
20503,ביה''ס לרפואה/קלצ'קין,32.117552,34.805965
20506,דרך חיל השריון/גולומב,32.049669,34.783803
20538,ת.רק''ל מחרוזת/שד' ירושלים,32.032344,34.75122
20544,נרדור/מחרוזת,32.033542,34.757432
20550,יוסף לוי/הכובשים,32.065867,34.764095
20551,מנהלי הנדסה ובת''ש/שד' בן גוריון,32.08293,34.777038
20563,ת.רק''ל בלומפילד/יהודה הימית,32.049684,34.758398
20597,אינשטיין/ברודצקי,32.113008,34.798492
20607,שבטי ישראל/תג'ר,32.04745,34.755852
20610,תיכון עמוס עוז/שושנה פרסיץ,32.131496,34.794782
20611,תיכון עמוס עוז/שושנה פרסיץ,32.131422,34.793848
20721,ביה''ס ברנר/מאיר גרוסמן,32.040954,34.767566
20825,שד' הר ציון/דרך שלמה,32.0539,34.774813
21256,ת.מרכזית תל אביב קומה 6/רציפים,32.055908,34.779085
22955,ת.מרכזית תל אביב קומה 7/רציפים,32.056413,34.779452
21256,ת.מרכזית תל אביב קומה 6/רציפים,32.055908,34.779085
21256,ת.מרכזית תל אביב קומה 6/רציפים,32.055908,34.779085
21256,ת.מרכזית תל אביב קומה 6/רציפים,32.055908,34.779085
21256,ת.מרכזית תל אביב קומה 6/רציפים,32.055908,34.779085
21256,ת.מרכזית תל אביב קומה 6/רציפים,32.055908,34.779085
21256,ת.מרכזית תל אביב קומה 6/רציפים,32.055908,34.779085
21256,ת.מרכזית תל אביב קומה 6/רציפים,32.055908,34.779085
22955,ת.מרכזית תל אביב קומה 7/רציפים,32.056413,34.779452
25439,ת.מרכזית תל אביב קומה 7/רציפים,32.056141,34.779261
22955,ת.מרכזית תל אביב קומה 7/רציפים,32.056413,34.779452
22955,ת.מרכזית תל אביב קומה 7/רציפים,32.056413,34.779452
21256,ת.מרכזית תל אביב קומה 6/רציפים,32.055908,34.779085
28624,ת.מרכזית תל אביב קומה 6/רציפים,32.056487,34.779648
28625,ת.מרכזית תל אביב קומה 7/רציפים,32.054886,34.780031
28625,ת.מרכזית תל אביב קומה 7/רציפים,32.054886,34.780031
28625,ת.מרכזית תל אביב קומה 7/רציפים,32.054886,34.780031
28625,ת.מרכזית תל אביב קומה 7/רציפים,32.054886,34.780031
28625,ת.מרכזית תל אביב קומה 7/רציפים,32.054886,34.780031
28660,המסגר/לה גווארדיה,32.05997,34.784339
21256,ת.מרכזית תל אביב קומה 6/רציפים,32.055908,34.779085
28624,ת.מרכזית תל אביב קומה 6/רציפים,32.056487,34.779648
28625,ת.מרכזית תל אביב קומה 7/רציפים,32.054886,34.780031
21256,ת.מרכזית תל אביב קומה 6/רציפים,32.055908,34.779085
21256,ת.מרכזית תל אביב קומה 6/רציפים,32.055908,34.779085
28663,דרך שלמה/שד' הר ציון,32.054906,34.774122
25439,ת.מרכזית תל אביב קומה 7/רציפים,32.056141,34.779261
21256,ת.מרכזית תל אביב קומה 6/רציפים,32.055908,34.779085
22955,ת.מרכזית תל אביב קומה 7/רציפים,32.056413,34.779452
22955,ת.מרכזית תל אביב קומה 7/רציפים,32.056413,34.779452
22955,ת.מרכזית תל אביב קומה 7/רציפים,32.056413,34.779452
28624,ת.מרכזית תל אביב קומה 6/רציפים,32.056487,34.779648
25439,ת.מרכזית תל אביב קומה 7/רציפים,32.056141,34.779261
25439,ת.מרכזית תל אביב קומה 7/רציפים,32.056141,34.779261
25439,ת.מרכזית תל אביב קומה 7/רציפים,32.056141,34.779261
25439,ת.מרכזית תל אביב קומה 7/רציפים,32.056141,34.779261
28624,ת.מרכזית תל אביב קומה 6/רציפים,32.056487,34.779648
28624,ת.מרכזית תל אביב קומה 6/רציפים,32.056487,34.779648
21256,ת.מרכזית תל אביב קומה 6/רציפים,32.055908,34.779085
21256,ת.מרכזית תל אביב קומה 6/רציפים,32.055908,34.779085
21256,ת.מרכזית תל אביב קומה 6/רציפים,32.055908,34.779085
21256,ת.מרכזית תל אביב קומה 6/רציפים,32.055908,34.779085
21256,ת.מרכזית תל אביב קומה 6/רציפים,32.055908,34.779085
21256,ת.מרכזית תל אביב קומה 6/רציפים,32.055908,34.779085
21256,ת.מרכזית תל אביב קומה 6/רציפים,32.055908,34.779085
21256,ת.מרכזית תל אביב קומה 6/רציפים,32.055908,34.779085
21256,ת.מרכזית תל אביב קומה 6/רציפים,32.055908,34.779085
21256,ת.מרכזית תל אביב קומה 6/רציפים,32.055908,34.779085
21256,ת.מרכזית תל אביב קומה 6/רציפים,32.055908,34.779085
21256,ת.מרכזית תל אביב קומה 6/רציפים,32.055908,34.779085
28624,ת.מרכזית תל אביב קומה 6/רציפים,32.056487,34.779648
28624,ת.מרכזית תל אביב קומה 6/רציפים,32.056487,34.779648
22955,ת.מרכזית תל אביב קומה 7/רציפים,32.056413,34.779452
44212,תחנת מוניות תל אביב תחנה מרכזית,32.055134,34.780892
44210,תחנת מוניות תל אביב תחנה מרכזית,32.055019,34.780993
44209,תחנת מוניות תל אביב דרך שלמה,32.05408,34.778682
44208,תחנת מוניות תל אביב דרך שלמה,32.054237,34.778943
44207,תחנת מוניות תל אביב לוינסקי הר ציון,32.058166,34.777146
44206,תחנת מוניות תל אביב לוינסקי הר ציון,32.057666,34.777385
44205,תחנת מוניות תל אביב יחזקאל קויפמן,32.066442,34.762868
44204,תחנת מוניות תל אביב הרברט סמואל,32.0681,34.763003
44203,תחנת מוניות תל אביב הכובשים,32.068802,34.765734
44202,תחנת מוניות תל אביב הירקון,32.088932,34.771675
44096,תחנת מוניות תל אביב שכונת בבלי,32.09595,34.803653
44095,תחנת מוניות תל אביב שכונת בבלי,32.096263,34.803746
44090,תחנת מוניות תל אביב מסוף רדינג,32.098608,34.778279
44089,תחנת מוניות תל אביב מסוף רדינג,32.098687,34.778095
44029,תחנת מוניות רמת גן דרך הטייסים,32.048974,34.813797
21256,ת.מרכזית תל אביב קומה 6/רציפים,32.055908,34.779085
44277,תחנת מוניות תל אביב הירקון,32.078128,34.76762
21378,קניון עזריאלי/כביש 20,32.072545,34.792553
20024,גשר דוד שיפמן /דרך מנחם בגין,32.080454,34.797667
20017,גשר דוד שיפמן /דרך מנחם בגין,32.080412,34.797359
20013,דרך נמיר/דרך מנחם בגין,32.080207,34.794181
20005,ת.רק''ל אלנבי/יהודה הלוי,32.062454,34.77418
20053,מקווה ישראל/לבונטין,32.062716,34.77689
28624,ת.מרכזית תל אביב קומה 6/רציפים,32.056487,34.779648
20060,ת. רכבת האוניברסיטה/מזרח,32.103299,34.805284
20054,שדרות לוי אשכול/כיכר מאיר יערי,32.100997,34.789292
20139,ישראל טל/המסגר,32.063351,34.785067
28625,ת.מרכזית תל אביב קומה 7/רציפים,32.054886,34.780031
25439,ת.מרכזית תל אביב קומה 7/רציפים,32.056141,34.779261
20235,אצטדיון בלומפילד/דרך בן צבי,32.049708,34.760838
20236,הבימה/שד' תרס''ט,32.072934,34.7788
20276,בית הלוחם/שמואל ברקאי,32.123097,34.808383
20280,יהודה הימית/אברהם לוינסון,32.049804,34.755758
20278,יהודה הימית/אברהם אבן שושן,32.050103,34.75326
20284,בית אבות בית בלב/בית אל,32.117013,34.841304
20283,בית אל/רמה,32.118982,34.840769
21256,ת.מרכזית תל אביב קומה 6/רציפים,32.055908,34.779085
20001,ת. רכבת תל אביב- סבידור/רציפים A,32.083157,34.796089
20320,סשה ארגוב/מקס זליגמן,32.126058,34.835016
20317,משה וילנסקי/פרנץ קפקא,32.127596,34.834055
20316,אהרון בקר/מרדכי מאיר,32.123449,34.815203
20313,אליעזר קפלן/דובנוב,32.07356,34.783258
20311,אליעזר קפלן/אבן גבירול,32.073377,34.782953
20310,ישראל מסלנט/האסיף,32.048639,34.781126
20309,ת.מרכזית תל אביב/דרך שלמה,32.0539,34.779592
20298,ת.מרכזית תל אביב/דרך שלמה,32.054262,34.778747
20297,מיצקביץ'/עזה,32.044088,34.760052
20296,נס לגויים/עזה,32.045021,34.759427
20001,ת. רכבת תל אביב- סבידור/רציפים A,32.083157,34.796089
20001,ת. רכבת תל אביב- סבידור/רציפים A,32.083157,34.796089
20001,ת. רכבת תל אביב- סבידור/רציפים A,32.083157,34.796089
20001,ת. רכבת תל אביב- סבידור/רציפים A,32.083157,34.796089
20001,ת. רכבת תל אביב- סבידור/רציפים A,32.083157,34.796089
20001,ת. רכבת תל אביב- סבידור/רציפים A,32.083157,34.796089
20001,ת. רכבת תל אביב- סבידור/רציפים A,32.083157,34.796089
20001,ת. רכבת תל אביב- סבידור/רציפים A,32.083157,34.796089
27997,ת. רכבת תל אביב - סבידור/הורדה,32.082845,34.796638
20001,ת. רכבת תל אביב- סבידור/רציפים A,32.083157,34.796089
20001,ת. רכבת תל אביב- סבידור/רציפים A,32.083157,34.796089
20001,ת. רכבת תל אביב- סבידור/רציפים A,32.083157,34.796089
20001,ת. רכבת תל אביב- סבידור/רציפים A,32.083157,34.796089
20001,ת. רכבת תל אביב- סבידור/רציפים A,32.083157,34.796089
20001,ת. רכבת תל אביב- סבידור/רציפים A,32.083157,34.796089
20001,ת. רכבת תל אביב- סבידור/רציפים A,32.083157,34.796089
20323,דרך קיבוץ גלויות/שד' הר ציון,32.049855,34.773002
44285,תחנת מוניות תל אביב רכבת מרכז,32.082928,34.795437
44284,תחנת מוניות תל אביב רכבת מרכז,32.083269,34.797018
44283,תחנת מוניות תל אביב אזורי חן,32.128877,34.79306
44282,תחנת מוניות תל אביב אזורי חן,32.129304,34.792646
44281,תחנת מוניות תל אביב רכבת ההגנה,32.054453,34.784681
44280,תחנת מוניות תל אביב מגדל האופרה,32.073313,34.766392
44279,תחנת מוניות תל אביב אורות,32.055238,34.80739
44278,תחנת מוניות תל אביב אורות,32.055414,34.807277
20459,דרך שלמה/שלבים,32.054772,34.765578
20458,אליפלט/הרבי מבכרך,32.056724,34.764609
20457,אליפלט/הרבי מבכרך,32.057072,34.764583
20456,אצטדיון בלומפילד/שלבים,32.051292,34.764878
20455,אצטדיון בלומפילד/שלבים,32.051093,34.765061
20454,ת.רק''ל שלמה,32.054779,34.760773
20453,ת.רק''ל שלמה,32.054932,34.760718
20452,כיכר השעון/נחום גולדמן,32.056288,34.756916
20450,כיכר השעון/מרזוק ועזר,32.055276,34.75726
20449,שוק הפשפשים/יפת,32.053685,34.75499
20448,יפת/לואי פסטר,32.052346,34.753208
20447,יפת/יהודה הימית,32.049974,34.752755
20446,יפת/יצחק אבינרי,32.049054,34.752751
20445,האקדמית תל אביב-יפו/היינריך היינה,32.047253,34.762886
20444,האקדמית תל אביב-יפו/היינריך היינה,32.046458,34.762991
20443,דרך בן צבי/היינריך היינה,32.049077,34.763086
20419,ת.רק''ל בלומפילד/יהודה הימית,32.049613,34.758162
20418,היינריך היינה/נס לגויים,32.044945,34.762805
20350,נס לגויים/היינריך היינה,32.043935,34.763256
20343,נס לגויים/שרירא גאון,32.044512,34.761893
20342,היינריך הינה\יגאל ידין,32.038485,34.760919
20337,אד' קוץ/אלפרדו דבלין,32.037461,34.757416
20462,שלבים/אליפלט,32.054332,34.765086
20461,שלבים/אליפלט,32.054148,34.765206
44286,תחנת מוניות הרברט סמואל,32.073347,34.764919
20464,ת.רק''ל מחרוזת/סהרון,32.03424,34.751143
21256,ת.מרכזית תל אביב קומה 6/רציפים,32.055908,34.779085
20465,ת.רק''ל מחרוזת/סהרון,32.034129,34.751208
20467,בית החייל/פנקס,32.090955,34.791056
20466,כיכר המדינה/אריה עקיבא,32.087673,34.790814
35246,מסוף הלוחמים/משרד הרישוי,32.034018,34.770659
35245,מסוף הלוחמים/משרד הרישוי,32.034003,34.772507
44298,תחנת מוניות תל אביב מסוף כרמלית,32.067358,34.764568
20469,פרופ' ישעיהו ליבוביץ'/הרב יעקב טראב,32.044016,34.798023
20473,בית עלמין צבאי,32.128443,34.827428
20634,משמר הירדן/הרוגי מלכות,32.111778,34.832055
20636,דרך בן צבי/לבון,32.043268,34.770639
44314,תחנת מוניות תל אביב מסוף כרמלית,32.067158,34.764607
20001,ת. רכבת תל אביב- סבידור/רציפים A,32.083157,34.796089
20641,ביה''ס בעש''ט/מח''ל,32.049042,34.806271
20640,מח''ל/ הרב אלנקווה,32.049425,34.801942
20639,מח''ל/ הרב אלנקווה,32.049633,34.802053
20642,יפת/3198,32.032973,34.744243
20649,החשמונאים/שד' רוטשילד,32.070312,34.779325
20673,טאגור/אופנהיימר,32.118222,34.799611
20672,טאגור/אריה פסטרנק,32.117103,34.79642
20671,מרכז מסחרי/טאגור,32.117679,34.798088
20670,טאגור/אנדרסן,32.114559,34.796223
20669,בי''ס גרץ/אד''ם הכהן,32.085245,34.777477
20668,דרך קיבוץ גלויות/מסילת ישרים,32.048734,34.775751
20667,דרך קיבוץ גלויות/שד' ישראל גורי,32.047121,34.781426
20666,דרך קיבוץ גלויות/לבון,32.049002,34.774301
20665,אצטדיון בלומפילד/דרך קיבוץ גלויות,32.053426,34.763966
20664,פרישמן/דב הוז,32.079849,34.772121
20663,גורדון/דב הוז,32.081955,34.772622
20662,חוף גורדון,32.082504,34.769654
20661,חוף בוגרשוב/הירקון,32.078377,34.767699
20660,חוף ירושלים,32.073296,34.764793
20659,חוף בננה ביץ',32.070602,34.763816
20658,הירקון/אלנבי,32.073731,34.766306
20657,הירקון/טרומפלדור,32.07536,34.766633
20656,חוף בוגרשוב/טיילת,32.078216,34.766845
20655,חוף פרישמן,32.080415,34.768444
20654,הירקון/שדרות בן גוריון,32.084191,34.769531
20653,אליעזר פרי/ארלוזורוב,32.087486,34.770673
20652,ארלוזורוב/בן יהודה,32.087553,34.772247
20651,ז'בוטינסקי/בן יהודה,32.08959,34.773341
20674,אבן גבירול/פנקס,32.090509,34.782879
20277,מסוף רדינג/רציפים,32.098781,34.779474
25867,מסוף רדינג/הורדה,32.098973,34.778771
20676,כיכר מילאנו/יהודה המכבי,32.093956,34.784624
26806,מסוף עתידים,32.114226,34.841355
26807,מסוף עתידים,32.113359,34.842539
20700,אבן גבירול/ארלוזורוב,32.084898,34.781789
20699,אבן גבירול/ארלוזורוב,32.084806,34.781547
20698,אבן גבירול/ז'בוטינסקי,32.088644,34.782306
20697,אבן גבירול/ז'בוטינסקי,32.08874,34.782552
26956,מסוף כרמלית/הורדה,32.067287,34.765823
20009,בית ספר אוסישקין,32.095147,34.780976
20109,צ'לנוב/הגדוד העברי,32.059733,34.775866
20152,כיכר רבין/אבן גבירול,32.079138,34.781405
20193,גימנסיה הרצליה/רמז,32.087197,34.786096
20121,גאולה/הכובשים,32.071642,34.767849
20102,צ'לנוב/מטלון,32.057836,34.775157
20095,הירקון/יונה הנביא,32.073094,34.76607
20113,הגליל/השרון,32.061029,34.778487
20160,הרכבת/המסגר,32.059556,34.783556
20133,טרומפלדור/בן יהודה,32.075514,34.767296
20097,דרך שלמה/שוקן,32.054769,34.772546
25867,מסוף רדינג/הורדה,32.098973,34.778771
25867,מסוף רדינג/הורדה,32.098973,34.778771
20001,ת. רכבת תל אביב- סבידור/רציפים A,32.083157,34.796089
20277,מסוף רדינג/רציפים,32.098781,34.779474
26806,מסוף עתידים,32.114226,34.841355
26807,מסוף עתידים,32.113359,34.842539
26956,מסוף כרמלית/הורדה,32.067287,34.765823
26957,מסוף כרמלית,32.067294,34.765425
26961,מסוף כרמלית,32.067589,34.765119
26963,מסוף כרמלית,32.067628,34.765001
20001,ת. רכבת תל אביב- סבידור/רציפים A,32.083157,34.796089
26957,מסוף כרמלית,32.067294,34.765425
26961,מסוף כרמלית,32.067589,34.765119
26963,מסוף כרמלית,32.067628,34.765001
26807,מסוף עתידים,32.113359,34.842539
28624,ת.מרכזית תל אביב קומה 6/רציפים,32.056487,34.779648
26961,מסוף כרמלית,32.067589,34.765119
21256,ת.מרכזית תל אביב קומה 6/רציפים,32.055908,34.779085
21256,ת.מרכזית תל אביב קומה 6/רציפים,32.055908,34.779085
21256,ת.מרכזית תל אביב קומה 6/רציפים,32.055908,34.779085
26957,מסוף כרמלית,32.067294,34.765425
20289,הסינמטק/קרליבך,32.070473,34.782559
20271,יהודה הלוי/מרמורק,32.070475,34.781467
20273,אבן גבירול/אליעזר קפלן,32.073989,34.78164
26806,מסוף עתידים,32.114226,34.841355
20277,מסוף רדינג/רציפים,32.098781,34.779474
26956,מסוף כרמלית/הורדה,32.067287,34.765823
26963,מסוף כרמלית,32.067628,34.765001
20345,ת.רק''ל הבעש''ט/שד' ירושלים,32.039451,34.755951
20346,ת.רק''ל איסקוב/שד' ירושלים,32.041253,34.756903
26643,מסוף אזורי חן,32.128509,34.792217
20727,ת.רק''ל יהודית/דרך מנחם בגין,32.069627,34.787954
26314,ת. רכבת אוניברסיטה/הורדה,32.104786,34.804264
20731,קניון טי.אל.וי/קרליבך,32.068334,34.783206
20728,ת.רק''ל יהודית/דרך מנחם בגין,32.06975,34.787748
26313,ת. רכבת אוניברסיטה/איסוף,32.104859,34.803889
20729,הרצל/דרך קיבוץ גלויות,32.050721,34.769837
20733,הגדוד העברי/שדרות הר ציון,32.058879,34.778131
20725,דרך מנחם בגין/החשמונאים,32.068718,34.786781
20546,שלמה,32.054357,34.759484
20736,שדרות לוי אשכול/מארק שאגאל,32.116694,34.790188
20202,ת.רק''ל אלנבי/יהודה הלוי,32.062722,34.774843
20738,הנביאים/שמריהו לוין,32.075952,34.778827
20451,אצטדיון בלומפילד,32.0503,34.758947
20726,דרך מנחם בגין/המלאכה,32.067185,34.784932
20351,שדרות ירושלים/שדרות הבעש''ט,32.037431,34.755134
20701,אליפלט,32.058423,34.763033
20375,איסקוב,32.042205,34.757079
20707,יהודית,32.070168,34.788406
20709,שאול המלך,32.076636,34.792005
20739,הנביאים/שמריהו לוין,32.075873,34.778733
20705,קרליבך,32.065272,34.782824
20737,שדרות לוי אשכול/מארק שאגאל,32.117433,34.790631
20703,אלנבי,32.062791,34.775131
20354,שדרות ירושלים/אד קוץ',32.037525,34.755479
20730,שז''ר/שקד,32.039933,34.762602
20711,ארלוזורוב,32.081554,34.796524
20362,מחרוזת,32.033272,34.751559
20734,הנחושת/הברזל,32.109287,34.839071
20732,ת.רק''ל קרליבך/לינקולן,32.066288,34.783154
20366,הבעש''ט,32.038772,34.755811
20399,ארליך,32.046052,34.758356
20741,ת.רכבת תל אביב - סבידור/רציפים C,32.08255,34.795844
20745,ת.רק''ל אלנבי/יבנה,32.062901,34.774284
20740,ת.רכבת תל אביב - סבידור/רציפים B,32.082918,34.795635
20744,מסוף כרמלית,32.066858,34.766001
20742,ראול ולנברג/דבורה הנביאה,32.114832,34.841324
20741,ת.רכבת תל אביב - סבידור/רציפים C,32.08255,34.795844
20741,ת.רכבת תל אביב - סבידור/רציפים C,32.08255,34.795844
20740,ת.רכבת תל אביב - סבידור/רציפים B,32.082918,34.795635
26313,ת. רכבת אוניברסיטה/איסוף,32.104859,34.803889
20375,איסקוב,32.042205,34.757079
20451,אצטדיון בלומפילד,32.0503,34.758947
20701,אליפלט,32.058423,34.763033
20711,ארלוזורוב,32.081554,34.796524
20546,שלמה,32.054357,34.759484
20705,קרליבך,32.065272,34.782824
20362,מחרוזת,32.033272,34.751559
20707,יהודית,32.070168,34.788406
20711,ארלוזורוב,32.081554,34.796524
20362,מחרוזת,32.033272,34.751559
20366,הבעש''ט,32.038772,34.755811
20451,אצטדיון בלומפילד,32.0503,34.758947
20399,ארליך,32.046052,34.758356
20546,שלמה,32.054357,34.759484
20703,אלנבי,32.062791,34.775131
20705,קרליבך,32.065272,34.782824
20375,איסקוב,32.042205,34.757079
20701,אליפלט,32.058423,34.763033
20703,אלנבי,32.062791,34.775131
20707,יהודית,32.070168,34.788406
20709,שאול המלך,32.076636,34.792005
20366,הבעש''ט,32.038772,34.755811
20399,ארליך,32.046052,34.758356
20709,שאול המלך,32.076636,34.792005
26313,ת. רכבת אוניברסיטה/איסוף,32.104859,34.803889
20750,ת.רק''ל קרליבך/דרך מנחם בגין A,32.065556,34.783121
20752,דרך מנחם בגין/הרכבת,32.063524,34.779788
20751,ישראל טל/דרך מנחם בגין,32.064034,34.782462
20749,ת.רק''ל קרליבך/דרך מנחם בגין B,32.065523,34.783296
26313,ת. רכבת אוניברסיטה/איסוף,32.104859,34.803889
20754,החרש/ראש פינה,32.058701,34.783741
20753,הרכבת/ראש פינה,32.059633,34.782976
20755,דבורה הנביאה/ראול ולנברג,32.114229,34.841026
20756,דרך השלום/יגאל אלון,32.072332,34.795296
26313,ת. רכבת אוניברסיטה/איסוף,32.104859,34.803889
20759,2040/שושנה פרסיץ,32.133696,34.792375
20761,המכללה למנהל/שושנה פרסיץ,32.134518,34.796599
20760,2040/שושנה פרסיץ,32.132093,34.791277
20762,ת.רק''ל ארלוזורוב/על פרשת דרכים,32.081639,34.796103
20769,פארק החורשות/לבון,32.045706,34.772189
20768,דבורה הנביאה/מתתיהו שוהם,32.118684,34.829695
20766,שדרה 5 / 2040,32.138706,34.79626
20763,יוניצמן12040,32.142168,34.797576
20764,יוניצמן/כביש 2,32.141393,34.800303
20765,שדרה 5 / 2040,32.139076,34.795527
20767,2040/יוניצמן,32.141831,34.79596
20770,נחלת יצחק/יגאל אלון,32.075127,34.796167
20771,שדרה 5/מיכאל נאמן,32.139168,34.794183
20779,יוחנן הסנדלר/בלפור,32.068074,34.77309
20780,גינת שינקין/יוחנן הסנדלר,32.069415,34.773389
20773,המלך ג'ורג'/אלנבי,32.070264,34.771042
20788,מסוף גולדה/הורדה,32.077395,34.784695
20782,ת. רק''ל אלנבי/רוטשילד,32.064049,34.774444
20777,מונטיפיורי/אלנבי,32.065588,34.772992
20786,דרך מנחם בגין/אלנבי,32.060498,34.775367
20775,שוק הכרמל/שינקין,32.069787,34.770716
20784,דיזנגוף סנטר/המלך ג'ורג',32.075397,34.776195
20772,יונה הנביא/אלנבי,32.07185,34.769128
20787,יבנה/יהודה הלוי,32.062904,34.774168
20776,מלצ'ט/שיינקין,32.068394,34.77565
20783,שדרות רוטשילד/אלנבי,32.063556,34.772773
20778,מזא''ה/אלנבי,32.067013,34.77172
20781,העבודה/המלך ג'ורג',32.070807,34.772299
20785,דיזנגוף סנטר/המלך ג'ורג',32.075533,34.776404
20774,המלך ג'ורג'/אלנבי,32.070252,34.771205
20789,מסוף גולדה/רציפים,32.077432,34.784802
20789,מסוף גולדה/רציפים,32.077432,34.784802
20789,מסוף גולדה/רציפים,32.077432,34.784802
20794,ד''ר ג'ורג' וייז/שלום רוזנפלד,32.107177,34.805353
44331,תחנות מוניות תל אביב איצטדיון בני יהודה,32.049545,34.786635
44332,תחנת מוניות תל אביב הירקון,32.072117,34.766092
20798,יצחק אלחנן/הכובשים,32.066312,34.764455
20808,אבן גבירול/שושנה פרסיץ,32.13234,34.792275
20830,אבן גבירול/צבי פרופס,32.12422,34.789063
20806,שושנה פרסיץ/אבן גבירול,32.131882,34.792452
20804,אבן גבירול,32.136365,34.794193
20816,אבן גבירול/2040,32.127205,34.78987
20809,אבן גבירול,32.136622,34.794687
20805,אבן גבירול/שדרה 5,32.139294,34.796136
20803,אבן גבירול/שדרה 5,32.138557,34.795521
20807,אבן גבירול/שושנה פרסיץ,32.131788,34.791688
20813,אבן גבירול/2040,32.127805,34.790477
20831,צבי פרופס/אבן גבירול,32.123428,34.789443
20832,ת.רק''ל ארלוזורוב/דרך מנחם בגין,32.080749,34.796416
20836,משמר הירדן/מרכוס,32.113477,34.832566
20835,יגאל אלון/תוצרת הארץ,32.074065,34.79524
20837,ת.רק''ל שאול המלך/דרך מנחם בגין,32.076946,34.792065
20843,הרצל/יהודה הלוי,32.061828,34.770272
20841,הרצל/וולפסון,32.058222,34.770874
20844,נחלת בנימין/לילנבלום,32.062088,34.77212
20839,הרצל/דרך שלמה,32.054436,34.770865
20840,הרצל/פלורנטין,32.056033,34.770883
20838,הרצל/דרך קיבוץ גלויות,32.05191,34.770258
20842,הרצל/דרך יפו,32.060837,34.770478
20740,ת.רכבת תל אביב - סבידור/רציפים B,32.082918,34.795635
20740,ת.רכבת תל אביב - סבידור/רציפים B,32.082918,34.795635
20845,שדרות בן גוריון/בן יהודה,32.0848,34.773271
20846,שדרות בן גוריון/בן יהודה,32.084966,34.771646
20853,פינסקר/בוגרשוב,32.075513,34.771524
20855,העלייה/דרך שלמה,32.05518,34.772258
20859,מסוף ההגנה/הורדה,32.054691,34.784
20860,מסוף ההגנה/איסוף,32.054507,34.783761
20867,גן מאיר/טשרניחובסקי,32.073754,34.772519
20868,המכבי/טשרניחובסקי,32.071683,34.771316
20866,מלצ'ט/בורוכוב,32.071392,34.776463
20871,צומת חולון/איילון דרום,32.038069,34.777287
20869,צומת חולון,32.038495,34.778599
20872,ת.רכבת צומת חולון,32.037136,34.77722
20870,צומת חולון,32.038395,34.778205
20860,מסוף ההגנה/איסוף,32.054507,34.783761
20873,המסגר/ריב''ל,32.062884,34.785073
20874,ראול ולנברג/דבורה הנביאה,32.114058,34.840255
20876,דרך נמיר/שדרות שאול המלך,32.078509,34.793016
20879,לבון/דרך קיבוץ גלויות,32.049015,34.773123
20277,מסוף רדינג/רציפים,32.098781,34.779474
20277,מסוף רדינג/רציפים,32.098781,34.779474
2320,שדרות שאול המלך/הנרייטה סולד,32.078028,34.791765
2321,דרך מנחם בגין/דרך נמיר,32.078307,34.793389
2577,קאנטרי דקל,32.096331,34.803916
20789,מסוף גולדה/רציפים,32.077432,34.784802
2881,תחנה תפעולית/מסוף גולדה,32.077413,34.784747
2965,חוף גורדון,32.081934,34.768527
2996,הרב יעקב טראב/ישעיהו ליבוביץ,32.0444,34.797846
24068,ת. רכבת תל אביב - סבידור/דרך נמיר,32.083482,34.795008
24068,ת. רכבת תל אביב - סבידור/דרך נמיר,32.083482,34.795008
24068,ת. רכבת תל אביב - סבידור/דרך נמיר,32.083482,34.795008
24068,ת. רכבת תל אביב - סבידור/דרך נמיר,32.083482,34.795008
24068,ת. רכבת תל אביב - סבידור/דרך נמיר,32.083482,34.795008
24068,ת. רכבת תל אביב - סבידור/דרך נמיר,32.083482,34.795008
39719,מסוף וולפסון,32.036865,34.762099
39737,דוד אלעזר/קרן היסוד,32.007736,34.784654
39739,ההסתדרות/שנקר,32.017521,34.774012
39747,המנור/הרוקמים,32.006283,34.804331
39749,קמפוס חנקין/חנקין,32.016078,34.778599
39750,מרכז רפואי מכבי הופיין,32.014255,34.766926
39755,קמפוס חנקין/חנקין,32.015703,34.778475
39765,המלאכה/האורגים,32.012089,34.797033
39770,בגין/פנחס אילון,32.004807,34.778631
39771,פנחס אילון/בגין,32.004839,34.776296
39774,מיי מול/פנחס אילון,32.008859,34.778158
39775,הרוקמים/הבנאי,32.008484,34.800141
39776,הלהב/הרוקמים,32.007227,34.801097
39787,האורגים/המרכבה,32.007791,34.807276
39874,מכון טכנולוגי חולון/פיכמן,32.013642,34.775162
25274,ת. רכבת צומת חולון,32.037191,34.778231
31460,ההסתדרות/אחד במאי,32.018279,34.768301
31461,שדרות קוגל/סוקולוב,32.023598,34.774583
32030,דרך השבעה/המכתש למזרח,32.027394,34.798346
33155,ארבע ארצות/זרובבל,32.002567,34.764842
33163,התנאים/האמוראים,32.005784,34.763261
33196,אילת/התנאים,32.006547,34.764681
33206,אהרונוביץ'/הציונות,32.00712,34.768546
33220,אהרונוביץ'/הציונות,32.007466,34.768544
33222,אהרונוביץ'/דוד רמז,32.010679,34.769511
33223,אהרונוביץ'/הופיין,32.012722,34.769841
33224,גאולים/שדרות ירושלים,32.017508,34.786675
33227,אהרונוביץ'/הופיין,32.012333,34.769673
33240,חומה ומגדל/אחד במאי,32.02027,34.770254
33242,תרצ''ו/זמנהוף,32.021907,34.76693
33291,חנקין/סוקולוב,32.023125,34.779056
33344,דב הוז/הנרייטה סולד,32.023502,34.767987
33347,כיכר הלוחמים/קוגל,32.028159,34.773348
33359,המעפילים/הרמב''ם,32.026368,34.766071
33373,ארבע ארצות/הסנהדרין,32.002586,34.763274
33382,הסנהדרין/הסבוראים,32.003971,34.763204
33389,המעפילים/הלוחמים,32.03118,34.768935
33390,המצודה/לח''י,32.032817,34.763739
33392,תיכון קרית שרת/גבעת התחמושת,32.005767,34.790292
33394,מרכז קרית שרת/גבעת התחמושת,32.007669,34.790876
33397,רמת הגולן/ששת הימים,32.007805,34.7954
33399,רמת הגולן/ששת הימים,32.007879,34.795243
33420,ששת הימים/משה שרת,32.008475,34.793349
33424,מרכז קרית שרת/גבעת התחמושת,32.007387,34.790705
33468,תיכון קרית שרת/גבעת התחמושת,32.005823,34.7902
33636,מרכז קרית שרת/ששם הימים,32.008387,34.792845
33638,המשביר/החופר,32.012373,34.806053
33676,השופטים/דבורה הנביאה,32.01464,34.796569
33677,הנביאים/דבורה הנביאה,32.015405,34.793652
33750,הנביאים/בצלאל,32.015587,34.792191
33756,אורט חולון/הנביאים,32.018663,34.790363
33757,ירמיהו/השופטים,32.017015,34.797584
33758,הנביאים/ירמיהו,32.016708,34.79521
33759,ירמיהו/השופטים,32.016885,34.797698
33760,ירמיהו/גדעון,32.018022,34.794327
33761,ירמיהו/פרופ' שור,32.019396,34.79252
33762,גאולים/שדרות ירושלים,32.017834,34.786912
33763,זאב יעבץ/שמעון דובנוב,32.020974,34.790862
33764,ירמיהו/גדעון,32.018026,34.79413
33767,ההסתדרות/דוד אלעזר,32.014378,34.786421
33768,המלאכה/השבעה,32.020384,34.804887
33817,גאולים/ההסתדרות,32.016384,34.785136
33818,גאולים/ההסתדרות,32.016145,34.784668
33819,חנקין/חומה ומגדל,32.019444,34.778833
33820,חנקין/חומה ומגדל,32.019545,34.778665
33821,חומה ומגדל/שנקר,32.019969,34.776264
33822,הבנים/המעפילים,32.028679,34.765417
33823,כיכר הלוחמים/לוי אשכול,32.030302,34.774231
33827,פרופ' שור/הפלד,32.022593,34.795724
33829,פרופ' שור/הפלד,32.022601,34.795586
33832,פרופ' שור/ירמיהו,32.020809,34.793249
33888,יהושע טהון/קלומל,32.021748,34.789197
33889,ההסתדרות/אחד במאי,32.018397,34.768633
33895,עיריית חולון/ויצמן,32.016918,34.770573
33896,שדרות ירושלים/סוקולוב,32.021486,34.786454
